$GPGLL,4323.0291,N,08023.8600,W,225252.651,A*2F
$GPGSA,A,3,18,01,11,19,17,08,28,07,30,,,,1.9,1.1,1.5*3E
$GPRMC,225252.651,A,4323.0291,N,08023.8600,W,14.595062,178.95,180319,,*20
$GPGGA,225253.651,4323.0252,N,08023.8605,W,1,08,1.2,262.9,M,-34.9,M,0.0,0000*45 //this string matters
$TEMPH			
$GPGLL,4323.0252,N,08023.8605,W,225253.651,A*24
$GPGSA,A,3,18,01,19,17,08,28,07,30,,,,,1.9,1.2,1.5*3D
$GPRMC,225253.651,A,4323.0252,N,08023.8605,W,13.831998,192.97,180319,,*25
$GPGGA,225254.651,4323.0215,N,08023.8625,W,1,08,1.3,263.0,M,-34.9,M,0.0,0000*4A
$GPGLL,4323.0215,N,08023.8625,W,225254.651,A*22
$GPGSA,A,3,18,01,11,19,17,08,28,07,,,,,2.0,1.3,1.5*35
$GPRMC,225254.651,A,4323.0215,N,08023.8625,W,14.059689,207.42,180319,,*2A
$GPGGA,225255.651,4323.0184,N,08023.8660,W,1,09,1.1,263.1,M,-34.9,M,0.0,0000*43
$GPGLL,4323.0184,N,08023.8660,W,225255.651,A*29
$GPGSA,A,3,18,01,11,19,17,08,28,07,30,,,,1.9,1.1,1.5*3E
$GPGSV,3,1,12,18,37,53,37,1,58,84,41,11,51,60,37,3,8,123,28*75
$GPGSV,3,2,12,19,21,249,39,22,15,102,34,17,47,259,43,8,12,64,28*7A
$GPGSV,3,3,12,28,72,332,39,7,20,173,41,30,47,198,39,134,0,0,0*74
$GPRMC,225255.651,A,4323.0184,N,08023.8660,W,14.941897,227.87,180319,,*2B
$GPGGA,225256.651,4323.0160,N,08023.8712,W,1,09,1.1,263.4,M,-34.9,M,0.0,0000*4B
$GPGLL,4323.0160,N,08023.8712,W,225256.651,A*24
$GPGSA,A,3,18,01,11,19,17,08,28,07,30,,,,1.9,1.1,1.5*3E
$GPRMC,225256.651,A,4323.0160,N,08023.8712,W,16.509917,245.62,180319,,*22
$GPGGA,225257.651,4323.0143,N,08023.8776,W,1,09,1.1,263.6,M,-34.9,M,0.0,0000*4B
$GPGLL,4323.0143,N,08023.8776,W,225257.651,A*26
$GPGSA,A,3,18,01,11,19,17,08,28,07,30,,,,1.9,1.1,1.5*3E
$GPRMC,225257.651,A,4323.0143,N,08023.8776,W,18.616729,252.66,180319,,*22
$GPGGA,225258.651,4323.0129,N,08023.8850,W,1,08,1.2,263.9,M,-34.9,M,0.0,0000*4E
$GPGLL,4323.0129,N,08023.8850,W,225258.651,A*2E
$GPGSA,A,3,18,01,11,19,08,28,07,30,,,,,1.9,1.2,1.5*3B
$GPRMC,225258.651,A,4323.0129,N,08023.8850,W,20.630911,255.46,180319,,*25
$GPGGA,225259.651,4323.0115,N,08023.8932,W,1,08,1.2,263.9,M,-34.9,M,0.0,0000*45
$GPGLL,4323.0115,N,08023.8932,W,225259.651,A*25
$GPGSA,A,3,18,01,11,19,08,28,07,30,,,,,1.9,1.2,1.5*3B
$GPRMC,225259.651,A,4323.0115,N,08023.8932,W,22.349673,256.82,180319,,*27
$GPGGA,225300.651,4323.0102,N,08023.9020,W,1,08,1.2,263.8,M,-34.9,M,0.0,0000*44
$GPGLL,4323.0102,N,08023.9020,W,225300.651,A*25
$GPGSA,A,3,18,01,11,19,08,28,07,30,,,,,1.9,1.2,1.5*3B
$GPGSV,3,1,12,18,37,53,41,1,58,84,37,11,51,60,35,3,8,123,30*7E
$GPGSV,3,2,12,19,21,249,34,22,15,102,21,17,47,259,27,8,12,64,37*7F
$GPGSV,3,3,12,28,72,332,41,7,20,173,44,30,47,198,43,134,0,0,0*73
$GPRMC,225300.651,A,4323.0102,N,08023.9020,W,23.708997,258.35,180319,,*20
$GPGGA,225301.651,4323.0090,N,08023.9114,W,1,09,1.1,263.7,M,-34.9,M,0.0,0000*44
$GPGLL,4323.0090,N,08023.9114,W,225301.651,A*28
$GPGSA,A,3,18,01,11,19,17,08,28,07,30,,,,1.9,1.1,1.5*3E
$GPRMC,225301.651,A,4323.0090,N,08023.9114,W,24.896020,260.65,180319,,*29
$GPGGA,225302.651,4323.0081,N,08023.9214,W,1,09,1.1,263.9,M,-34.9,M,0.0,0000*4A
$GPGLL,4323.0081,N,08023.9214,W,225302.651,A*28
$GPGSA,A,3,18,01,11,19,17,08,28,07,30,,,,1.9,1.1,1.5*3E
$GPRMC,225302.651,A,4323.0081,N,08023.9214,W,25.999655,263.22,180319,,*22
$GPGGA,225303.651,4323.0075,N,08023.9320,W,1,09,1.1,264.0,M,-34.9,M,0.0,0000*48
$GPGLL,4323.0075,N,08023.9320,W,225303.651,A*24
$GPGSA,A,3,18,01,11,19,17,08,28,07,30,,,,1.9,1.1,1.5*3E
$GPRMC,225303.651,A,4323.0075,N,08023.9320,W,27.216183,265.79,180319,,*24
$GPGGA,225304.651,4323.0072,N,08023.9430,W,1,09,1.1,264.2,M,-34.9,M,0.0,0000*4C
$GPGLL,4323.0072,N,08023.9430,W,225304.651,A*22
$GPGSA,A,3,18,01,11,19,17,08,28,07,30,,,,1.9,1.1,1.5*3E
$GPRMC,225304.651,A,4323.0072,N,08023.9430,W,28.128821,268.57,180319,,*23
$GPGGA,225305.651,4323.0074,N,08023.9543,W,1,09,1.1,264.3,M,-34.9,M,0.0,0000*4F
$GPGLL,4323.0074,N,08023.9543,W,225305.651,A*20
$GPGSA,A,3,18,01,11,19,17,08,28,07,30,,,,1.9,1.1,1.5*3E
$GPGSV,3,1,12,18,37,53,43,1,58,84,33,11,51,60,39,3,8,123,29*7C
$GPGSV,3,2,12,19,21,249,31,22,15,102,28,17,47,259,43,8,12,64,36*70
$GPGSV,3,3,12,28,72,332,38,7,20,173,38,30,47,198,43,134,0,0,0*76
$GPRMC,225305.651,A,4323.0074,N,08023.9543,W,28.730591,271.81,180319,,*2B
$GPGGA,225306.651,4323.0080,N,08023.9657,W,1,08,1.4,264.2,M,-34.9,M,0.0,0000*44
$GPGLL,4323.0080,N,08023.9657,W,225306.651,A*2E
$GPGSA,A,3,18,01,11,17,08,28,07,30,,,,,2.4,1.4,1.9*31
$GPRMC,225306.651,A,4323.0080,N,08023.9657,W,29.507026,275.23,180319,,*27
$GPGGA,225307.650,4323.0091,N,08023.9775,W,1,08,1.4,263.9,M,-34.9,M,0.0,0000*49
$GPGLL,4323.0091,N,08023.9775,W,225307.650,A*2F
$GPGSA,A,3,18,01,11,17,08,28,07,30,,,,,2.4,1.4,1.9*31
$GPRMC,225307.650,A,4323.0091,N,08023.9775,W,30.334109,277.99,180319,,*27
$GPGGA,225308.650,4323.0107,N,08023.9896,W,1,08,1.4,263.7,M,-34.9,M,0.0,0000*44
$GPGLL,4323.0107,N,08023.9896,W,225308.650,A*2C
$GPGSA,A,3,18,01,11,17,08,28,07,30,,,,,2.4,1.4,1.9*31
$GPRMC,225308.650,A,4323.0107,N,08023.9896,W,31.159428,280.18,180319,,*2B
$GPGGA,225309.650,4323.0126,N,08024.0019,W,1,09,1.1,263.6,M,-34.9,M,0.0,0000*42
$GPGLL,4323.0126,N,08024.0019,W,225309.650,A*2F
$GPGSA,A,3,18,01,11,19,17,08,28,07,30,,,,1.9,1.1,1.5*3E
$GPRMC,225309.650,A,4323.0126,N,08024.0019,W,31.902296,281.99,180319,,*25
$GPGGA,225310.650,4323.0149,N,08024.0143,W,1,09,1.1,263.8,M,-34.9,M,0.0,0000*43
$GPGLL,4323.0149,N,08024.0143,W,225310.650,A*20
$GPGSA,A,3,18,01,11,19,17,08,28,07,30,,,,1.9,1.1,1.5*3E
$GPGSV,3,1,12,18,37,53,42,1,58,84,35,11,51,60,42,3,8,123,24*7A
$GPGSV,3,2,12,19,21,249,34,22,15,102,25,17,47,259,43,8,12,64,40*79
$GPGSV,3,3,12,28,72,332,32,7,20,173,39,30,47,198,43,134,0,0,0*7D
$GPRMC,225310.650,A,4323.0149,N,08024.0143,W,32.487109,283.95,180319,,*22
$GPGGA,225311.650,4323.0175,N,08024.0267,W,1,09,1.1,264.3,M,-34.9,M,0.0,0000*44
$GPGLL,4323.0175,N,08024.0267,W,225311.650,A*2B
$GPGSA,A,3,18,01,11,19,17,08,28,07,30,,,,1.9,1.1,1.5*3E
$GPRMC,225311.650,A,4323.0175,N,08024.0267,W,33.171673,286.19,180319,,*2F
$GPGGA,225312.650,4323.0205,N,08024.0393,W,1,09,1.1,264.9,M,-34.9,M,0.0,0000*43
$GPGLL,4323.0205,N,08024.0393,W,225312.650,A*26
$GPGSA,A,3,18,01,11,19,17,08,28,07,30,,,,1.9,1.1,1.5*3E
$GPRMC,225312.650,A,4323.0205,N,08024.0393,W,33.777035,287.73,180319,,*2B
$GPGGA,225313.650,4323.0237,N,08024.0519,W,1,09,1.1,265.2,M,-34.9,M,0.0,0000*4D
$GPGLL,4323.0237,N,08024.0519,W,225313.650,A*22
$GPGSA,A,3,18,01,11,19,17,08,28,07,30,,,,1.9,1.1,1.5*3E
$GPRMC,225313.650,A,4323.0237,N,08024.0519,W,34.357615,288.77,180319,,*21
$GPGGA,225314.650,4323.0271,N,08024.0645,W,1,09,1.1,265.5,M,-34.9,M,0.0,0000*45
$GPGLL,4323.0271,N,08024.0645,W,225314.650,A*2D
$GPGSA,A,3,18,01,11,19,17,08,28,07,30,,,,1.9,1.1,1.5*3E
$GPRMC,225314.650,A,4323.0271,N,08024.0645,W,34.354008,289.92,180319,,*2D
$GPGGA,225315.650,4323.0306,N,08024.0770,W,1,09,1.1,265.6,M,-34.9,M,0.0,0000*41
$GPGLL,4323.0306,N,08024.0770,W,225315.650,A*2A
$GPGSA,A,3,18,01,11,19,17,08,28,07,30,,,,1.9,1.1,1.5*3E
$GPGSV,3,1,12,18,36,53,41,1,58,84,39,11,51,60,41,3,8,123,24*77
$GPGSV,3,2,12,19,21,249,36,22,15,101,25,17,47,259,45,8,12,65,38*70
$GPGSV,3,3,12,28,72,332,33,7,20,173,37,30,47,198,41,134,0,0,0*70
$GPRMC,225315.650,A,4323.0306,N,08024.0770,W,34.554088,290.85,180319,,*2A
$GPGGA,225316.650,4323.0343,N,08024.0895,W,1,09,1.1,265.7,M,-34.9,M,0.0,0000*46
$GPGLL,4323.0343,N,08024.0895,W,225316.650,A*2C
$GPGSA,A,3,18,01,11,19,17,08,28,07,30,,,,1.9,1.1,1.5*3E
$GPRMC,225316.650,A,4323.0343,N,08024.0895,W,34.806911,291.19,180319,,*2B
$GPGGA,225317.650,4323.0380,N,08024.1021,W,1,09,1.1,265.8,M,-34.9,M,0.0,0000*41
$GPGLL,4323.0380,N,08024.1021,W,225317.650,A*24
$GPGSA,A,3,18,01,11,19,17,08,28,07,30,,,,1.9,1.1,1.5*3E
$GPRMC,225317.650,A,4323.0380,N,08024.1021,W,35.114799,291.04,180319,,*2A
$GPGGA,225318.650,4323.0417,N,08024.1147,W,1,09,1.1,266.0,M,-34.9,M,0.0,0000*4D
$GPGLL,4323.0417,N,08024.1147,W,225318.650,A*23
$GPGSA,A,3,18,01,11,19,17,08,28,07,30,,,,1.9,1.1,1.5*3E
$GPRMC,225318.650,A,4323.0417,N,08024.1147,W,35.398322,291.04,180319,,*2F
$GPGGA,225319.650,4323.0454,N,08024.1273,W,1,09,1.1,266.2,M,-34.9,M,0.0,0000*4D
$GPGLL,4323.0454,N,08024.1273,W,225319.650,A*21
$GPGSA,A,3,18,01,11,19,17,08,28,07,30,,,,1.9,1.1,1.5*3E
$GPRMC,225319.650,A,4323.0454,N,08024.1273,W,35.383562,291.10,180319,,*20
$GPGGA,225320.650,4323.0491,N,08024.1400,W,1,09,1.1,266.5,M,-34.9,M,0.0,0000*4B
$GPGLL,4323.0491,N,08024.1400,W,225320.650,A*20
$GPGSA,A,3,18,01,11,19,17,08,28,07,30,,,,1.9,1.1,1.5*3E
$GPGSV,3,1,12,18,36,53,40,1,58,83,41,11,51,60,40,3,8,123,0*49
$GPGSV,3,2,12,19,21,249,37,22,15,101,28,17,47,259,44,8,12,65,39*7C
$GPGSV,3,3,12,28,72,333,34,7,20,173,40,30,47,198,41,120,0,0,0*73
$GPRMC,225320.650,A,4323.0491,N,08024.1400,W,35.281577,291.09,180319,,*2E
$GPGGA,225321.650,4323.0527,N,08024.1525,W,1,09,1.1,266.9,M,-34.9,M,0.0,0000*4C
$GPGLL,4323.0527,N,08024.1525,W,225321.650,A*2B
$GPGSA,A,3,18,01,11,19,17,08,28,07,30,,,,1.9,1.1,1.5*3E
$GPRMC,225321.650,A,4323.0527,N,08024.1525,W,35.210883,291.26,180319,,*26
$GPGGA,225322.650,4323.0564,N,08024.1650,W,1,09,1.1,267.4,M,-34.9,M,0.0,0000*45
$GPGLL,4323.0564,N,08024.1650,W,225322.650,A*2E
$GPGSA,A,3,18,01,11,19,17,08,28,07,30,,,,1.9,1.1,1.5*3E
$GPRMC,225322.650,A,4323.0564,N,08024.1650,W,35.135958,291.19,180319,,*2C
$GPGGA,225323.650,4323.0601,N,08024.1776,W,1,09,1.1,268.1,M,-34.9,M,0.0,0000*4B
$GPGLL,4323.0601,N,08024.1776,W,225323.650,A*2A
$GPGSA,A,3,18,01,11,19,17,08,28,07,30,,,,1.9,1.1,1.5*3E
$GPRMC,225323.650,A,4323.0601,N,08024.1776,W,35.218823,291.43,180319,,*26
$GPGGA,225324.649,4323.0638,N,08024.1901,W,1,09,1.1,268.8,M,-34.9,M,0.0,0000*49
$GPGLL,4323.0638,N,08024.1901,W,225324.649,A*21
$GPGSA,A,3,18,01,11,19,17,08,28,07,30,,,,1.9,1.1,1.5*3E
$GPRMC,225324.649,A,4323.0638,N,08024.1901,W,35.152264,291.60,180319,,*28
$GPGGA,225325.649,4323.0675,N,08024.2026,W,1,09,1.1,269.3,M,-34.9,M,0.0,0000*44
$GPGLL,4323.0675,N,08024.2026,W,225325.649,A*26
$GPGSA,A,3,18,01,11,19,17,08,28,07,30,,,,1.9,1.1,1.5*3E
$GPGSV,3,1,12,18,36,53,39,1,58,83,41,11,51,60,41,3,8,123,0*46
$GPGSV,3,2,12,19,21,249,36,22,15,101,29,17,47,259,45,8,12,65,38*7C
$GPGSV,3,3,12,28,72,333,34,7,20,173,40,30,47,198,41,120,0,0,0*73
$GPRMC,225325.649,A,4323.0675,N,08024.2026,W,34.955473,291.84,180319,,*2B
$GPGGA,225326.649,4323.0713,N,08024.2150,W,1,09,1.1,269.8,M,-34.9,M,0.0,0000*4D
$GPGLL,4323.0713,N,08024.2150,W,225326.649,A*24
$GPGSA,A,3,18,01,11,19,17,08,28,07,30,,,,1.9,1.1,1.5*3E
$GPRMC,225326.649,A,4323.0713,N,08024.2150,W,35.011505,292.15,180319,,*2A
$GPGGA,225327.649,4323.0751,N,08024.2275,W,1,09,1.1,270.3,M,-34.9,M,0.0,0000*4D
$GPGLL,4323.0751,N,08024.2275,W,225327.649,A*27
$GPGSA,A,3,18,01,11,19,17,08,28,07,30,,,,1.9,1.1,1.5*3E
$GPRMC,225327.649,A,4323.0751,N,08024.2275,W,35.052968,292.58,180319,,*20
$GPGGA,225328.649,4323.0790,N,08024.2399,W,1,09,1.1,270.8,M,-34.9,M,0.0,0000*47
$GPGLL,4323.0790,N,08024.2399,W,225328.649,A*26
$GPGSA,A,3,18,01,11,19,17,08,28,07,30,,,,1.9,1.1,1.5*3E
$GPRMC,225328.649,A,4323.0790,N,08024.2399,W,35.172033,292.83,180319,,*23
$GPGGA,225329.649,4323.0829,N,08024.2524,W,1,09,1.1,271.3,M,-34.9,M,0.0,0000*41
$GPGLL,4323.0829,N,08024.2524,W,225329.649,A*2A
$GPGSA,A,3,18,01,11,19,17,08,28,07,30,,,,1.9,1.1,1.5*3E
$GPRMC,225329.649,A,4323.0829,N,08024.2524,W,35.338550,292.59,180319,,*24
$GPGGA,225330.649,4323.0867,N,08024.2649,W,1,10,1.1,271.7,M,-34.9,M,0.0,0000*47
$GPGLL,4323.0867,N,08024.2649,W,225330.649,A*20
$GPGSA,A,3,18,01,11,19,22,17,08,28,07,30,,,1.8,1.1,1.4*3E
$GPGSV,3,1,12,18,36,53,39,1,58,83,41,11,51,60,41,3,8,123,0*46
$GPGSV,3,2,12,19,21,249,36,22,15,101,30,17,47,259,45,8,12,65,38*74
$GPGSV,3,3,12,28,72,333,33,7,20,173,39,30,47,198,40,120,0,0,0*7B
$GPRMC,225330.649,A,4323.0867,N,08024.2649,W,35.484278,292.27,180319,,*2A
$GPGGA,225331.649,4323.0906,N,08024.2774,W,1,10,1.1,272.1,M,-34.9,M,0.0,0000*4A
$GPGLL,4323.0906,N,08024.2774,W,225331.649,A*28
$GPGSA,A,3,18,01,11,19,22,17,08,28,07,30,,,1.8,1.1,1.4*3E
$GPRMC,225331.649,A,4323.0906,N,08024.2774,W,35.160413,291.93,180319,,*2A
$GPGGA,225332.649,4323.0943,N,08024.2899,W,1,10,1.1,272.6,M,-34.9,M,0.0,0000*43
$GPGLL,4323.0943,N,08024.2899,W,225332.649,A*26
$GPGSA,A,3,18,01,11,19,22,17,08,28,07,30,,,1.8,1.1,1.4*3E
$GPRMC,225332.649,A,4323.0943,N,08024.2899,W,35.062859,291.43,180319,,*28
$GPGGA,225333.649,4323.0979,N,08024.3024,W,1,10,1.1,272.9,M,-34.9,M,0.0,0000*4B
$GPGLL,4323.0979,N,08024.3024,W,225333.649,A*21
$GPGSA,A,3,18,01,11,19,22,17,08,28,07,30,,,1.8,1.1,1.4*3E
$GPRMC,225333.649,A,4323.0979,N,08024.3024,W,35.034094,291.01,180319,,*23
$GPGGA,225334.649,4323.1014,N,08024.3149,W,1,09,1.1,273.1,M,-34.9,M,0.0,0000*44
$GPGLL,4323.1014,N,08024.3149,W,225334.649,A*2F
$GPGSA,A,3,18,01,11,19,17,08,28,07,30,,,,1.9,1.1,1.5*3E
$GPRMC,225334.649,A,4323.1014,N,08024.3149,W,35.361819,290.74,180319,,*20
$GPGGA,225335.649,4323.1050,N,08024.3275,W,1,09,1.1,273.3,M,-34.9,M,0.0,0000*4B
$GPGLL,4323.1050,N,08024.3275,W,225335.649,A*22
$GPGSA,A,3,18,01,11,19,17,08,28,07,30,,,,1.9,1.1,1.5*3E
$GPGSV,3,1,12,18,36,53,42,1,58,83,41,11,51,60,39,3,8,123,0*45
$GPGSV,3,2,12,19,21,249,37,22,15,101,27,17,47,259,46,8,12,65,38*70
$GPGSV,3,3,12,28,72,333,32,7,20,173,38,30,47,198,40,120,0,0,0*7B
$GPRMC,225335.649,A,4323.1050,N,08024.3275,W,35.432130,290.76,180319,,*2C
$GPGGA,225336.649,4323.1085,N,08024.3401,W,1,09,1.1,273.4,M,-34.9,M,0.0,0000*42
$GPGLL,4323.1085,N,08024.3401,W,225336.649,A*2C
$GPGSA,A,3,18,01,11,19,17,08,28,07,30,,,,1.9,1.1,1.5*3E
$GPRMC,225336.649,A,4323.1085,N,08024.3401,W,35.465274,291.16,180319,,*24
$GPGGA,225337.649,4323.1120,N,08024.3527,W,1,09,1.1,273.3,M,-34.9,M,0.0,0000*4F
$GPGLL,4323.1120,N,08024.3527,W,225337.649,A*26
$GPGSA,A,3,18,01,11,19,17,08,28,07,30,,,,1.9,1.1,1.5*3E
$GPRMC,225337.649,A,4323.1120,N,08024.3527,W,35.273876,291.31,180319,,*22
$GPGGA,225338.649,4323.1156,N,08024.3652,W,1,09,1.1,273.2,M,-34.9,M,0.0,0000*41
$GPGLL,4323.1156,N,08024.3652,W,225338.649,A*29
$GPGSA,A,3,18,01,11,19,17,08,28,07,30,,,,1.9,1.1,1.5*3E
$GPRMC,225338.649,A,4323.1156,N,08024.3652,W,35.040082,291.01,180319,,*2F
$GPGGA,225339.649,4323.1190,N,08024.3777,W,1,09,1.1,273.1,M,-34.9,M,0.0,0000*4F
$GPGLL,4323.1190,N,08024.3777,W,225339.649,A*24
$GPGSA,A,3,18,01,11,19,17,08,28,07,30,,,,1.9,1.1,1.5*3E
$GPRMC,225339.649,A,4323.1190,N,08024.3777,W,35.134302,290.63,180319,,*2E
$GPGGA,225340.648,4323.1225,N,08024.3903,W,1,09,1.1,273.0,M,-34.9,M,0.0,0000*41
$GPGLL,4323.1225,N,08024.3903,W,225340.648,A*2B
$GPGSA,A,3,18,01,11,19,17,08,28,07,30,,,,1.9,1.1,1.5*3E
$GPGSV,3,1,12,18,36,53,42,1,58,83,41,11,51,60,39,3,8,123,0*45
$GPGSV,3,2,12,19,21,249,36,22,15,101,26,17,47,259,45,8,12,65,38*73
$GPGSV,3,3,12,28,72,333,33,7,20,173,37,30,47,198,41,120,0,0,0*74
$GPRMC,225340.648,A,4323.1225,N,08024.3903,W,35.008658,290.69,180319,,*2F
$GPGGA,225341.648,4323.1259,N,08024.4027,W,1,09,1.1,272.8,M,-34.9,M,0.0,0000*4A
$GPGLL,4323.1259,N,08024.4027,W,225341.648,A*29
$GPGSA,A,3,18,01,11,19,17,08,28,07,30,,,,1.9,1.1,1.5*3E
$GPRMC,225341.648,A,4323.1259,N,08024.4027,W,34.608051,290.88,180319,,*2A
$GPGGA,225342.648,4323.1293,N,08024.4149,W,1,09,1.1,272.4,M,-34.9,M,0.0,0000*4A
$GPGLL,4323.1293,N,08024.4149,W,225342.648,A*25
$GPGSA,A,3,18,01,11,19,17,08,28,07,30,,,,1.9,1.1,1.5*3E
$GPRMC,225342.648,A,4323.1293,N,08024.4149,W,34.009213,290.74,180319,,*26
$GPGGA,225343.648,4323.1326,N,08024.4269,W,1,10,1.1,271.9,M,-34.9,M,0.0,0000*43
$GPGLL,4323.1326,N,08024.4269,W,225343.648,A*2A
$GPGSA,A,3,18,01,11,19,22,17,08,28,07,30,,,1.8,1.1,1.4*3E
$GPRMC,225343.648,A,4323.1326,N,08024.4269,W,33.580075,290.59,180319,,*27
$GPGGA,225344.648,4323.1359,N,08024.4389,W,1,10,1.1,271.3,M,-34.9,M,0.0,0000*49
$GPGLL,4323.1359,N,08024.4389,W,225344.648,A*2A
$GPGSA,A,3,18,01,11,19,22,17,08,28,07,30,,,1.8,1.1,1.4*3E
$GPRMC,225344.648,A,4323.1359,N,08024.4389,W,33.825620,290.64,180319,,*2D
$GPGGA,225345.648,4323.1392,N,08024.4510,W,1,09,1.1,270.6,M,-34.9,M,0.0,0000*45
$GPGLL,4323.1392,N,08024.4510,W,225345.648,A*2A
$GPGSA,A,3,18,01,11,19,17,08,28,07,30,,,,1.9,1.1,1.5*3E
$GPGSV,3,1,12,18,36,53,42,1,58,83,41,11,51,60,39,3,8,122,0*44
$GPGSV,3,2,12,19,21,249,36,22,16,101,27,17,47,259,45,8,11,65,38*72
$GPGSV,3,3,12,28,72,333,33,7,20,173,36,30,47,198,40,120,0,0,0*74
$GPRMC,225345.648,A,4323.1392,N,08024.4510,W,34.071148,290.76,180319,,*29
$GPGGA,225346.648,4323.1426,N,08024.4631,W,1,09,1.1,269.8,M,-34.9,M,0.0,0000*48
$GPGLL,4323.1426,N,08024.4631,W,225346.648,A*21
$GPGSA,A,3,18,01,11,19,17,08,28,07,30,,,,1.9,1.1,1.5*3E
$GPRMC,225346.648,A,4323.1426,N,08024.4631,W,34.132028,291.65,180319,,*20
$GPGGA,225347.648,4323.1462,N,08024.4753,W,1,10,1.1,269.2,M,-34.9,M,0.0,0000*4E
$GPGLL,4323.1462,N,08024.4753,W,225347.648,A*25
$GPGSA,A,3,18,01,11,19,22,17,08,28,07,30,,,1.8,1.1,1.4*3E
$GPRMC,225347.648,A,4323.1462,N,08024.4753,W,34.396920,292.39,180319,,*23
$GPGGA,225348.648,4323.1500,N,08024.4875,W,1,10,1.1,268.9,M,-34.9,M,0.0,0000*45
$GPGLL,4323.1500,N,08024.4875,W,225348.648,A*24
$GPGSA,A,3,18,01,11,19,22,17,08,28,07,30,,,1.8,1.1,1.4*3E
$GPRMC,225348.648,A,4323.1500,N,08024.4875,W,34.762342,293.52,180319,,*2F
$GPGGA,225349.648,4323.1540,N,08024.4997,W,1,10,1.1,268.4,M,-34.9,M,0.0,0000*40
$GPGLL,4323.1540,N,08024.4997,W,225349.648,A*2C
$GPGSA,A,3,18,01,11,19,22,17,08,28,07,30,,,1.8,1.1,1.4*3E
$GPRMC,225349.648,A,4323.1540,N,08024.4997,W,35.128390,294.05,180319,,*24
$GPGGA,225350.648,4323.1580,N,08024.5120,W,1,10,1.1,267.7,M,-34.9,M,0.0,0000*4D
$GPGLL,4323.1580,N,08024.5120,W,225350.648,A*2D
$GPGSA,A,3,18,01,11,19,22,17,08,28,07,30,,,1.8,1.1,1.4*3E
$GPGSV,3,1,12,18,36,53,39,1,58,83,41,11,51,60,39,3,8,122,0*48
$GPGSV,3,2,12,19,21,249,37,22,16,101,28,17,47,259,46,8,11,65,36*71
$GPGSV,3,3,12,28,72,333,30,7,19,173,40,30,47,198,41,120,0,0,0*7D
$GPRMC,225350.648,A,4323.1580,N,08024.5120,W,35.475015,293.77,180319,,*24
$GPGGA,225351.648,4323.1620,N,08024.5243,W,1,10,1.1,267.1,M,-34.9,M,0.0,0000*45
$GPGLL,4323.1620,N,08024.5243,W,225351.648,A*23
$GPGSA,A,3,18,01,11,19,22,17,08,28,07,30,,,1.8,1.1,1.4*3E
$GPRMC,225351.648,A,4323.1620,N,08024.5243,W,35.532541,293.43,180319,,*2B
$GPGGA,225352.648,4323.1660,N,08024.5368,W,1,09,1.1,266.6,M,-34.9,M,0.0,0000*44
$GPGLL,4323.1660,N,08024.5368,W,225352.648,A*2C
$GPGSA,A,3,18,01,11,19,17,08,28,07,30,,,,1.9,1.1,1.5*3E
$GPRMC,225352.648,A,4323.1660,N,08024.5368,W,35.732371,293.55,180319,,*24
$GPGGA,225353.648,4323.1700,N,08024.5493,W,1,09,1.1,266.3,M,-34.9,M,0.0,0000*44
$GPGLL,4323.1700,N,08024.5493,W,225353.648,A*29
$GPGSA,A,3,18,01,11,19,17,08,28,07,30,,,,1.9,1.1,1.5*3E
$GPRMC,225353.648,A,4323.1700,N,08024.5493,W,35.574143,293.62,180319,,*26
$GPGGA,225354.648,4323.1740,N,08024.5619,W,1,09,1.1,266.1,M,-34.9,M,0.0,0000*45
$GPGLL,4323.1740,N,08024.5619,W,225354.648,A*2A
$GPGSA,A,3,18,01,11,19,17,08,28,07,30,,,,1.9,1.1,1.5*3E
$GPRMC,225354.648,A,4323.1740,N,08024.5619,W,35.537236,293.22,180319,,*27
$GPGGA,225355.648,4323.1779,N,08024.5745,W,1,09,1.1,266.1,M,-34.9,M,0.0,0000*46
$GPGLL,4323.1779,N,08024.5745,W,225355.648,A*29
$GPGSA,A,3,18,01,11,19,17,08,28,07,30,,,,1.9,1.1,1.5*3E
$GPGSV,3,1,12,18,36,53,40,1,58,83,41,11,51,60,39,3,8,122,0*46
$GPGSV,3,2,12,19,21,249,36,22,16,101,26,17,47,259,46,8,11,65,37*7F
$GPGSV,3,3,12,28,72,333,29,7,19,173,39,30,47,198,41,120,0,0,0*7B
$GPRMC,225355.648,A,4323.1779,N,08024.5745,W,35.427310,292.53,180319,,*26
$GPGGA,225356.647,4323.1816,N,08024.5871,W,1,10,1.1,265.9,M,-34.9,M,0.0,0000*47
$GPGLL,4323.1816,N,08024.5871,W,225356.647,A*2B
$GPGSA,A,3,18,01,11,19,22,17,08,28,07,30,,,1.8,1.1,1.4*3E
$GPRMC,225356.647,A,4323.1816,N,08024.5871,W,35.221798,292.04,180319,,*22
$GPGGA,225357.647,4323.1853,N,08024.5996,W,1,10,1.1,265.7,M,-34.9,M,0.0,0000*41
$GPGLL,4323.1853,N,08024.5996,W,225357.647,A*23
$GPGSA,A,3,18,01,11,19,22,17,08,28,07,30,,,1.8,1.1,1.4*3E
$GPRMC,225357.647,A,4323.1853,N,08024.5996,W,34.919046,291.60,180319,,*2E
$GPGGA,225358.647,4323.1889,N,08024.6120,W,1,10,1.1,265.6,M,-34.9,M,0.0,0000*4E
$GPGLL,4323.1889,N,08024.6120,W,225358.647,A*2D
$GPGSA,A,3,18,01,11,19,22,17,08,28,07,30,,,1.8,1.1,1.4*3E
$GPRMC,225358.647,A,4323.1889,N,08024.6120,W,34.648143,291.88,180319,,*29
$GPGGA,225359.647,4323.1925,N,08024.6241,W,1,10,1.1,265.2,M,-34.9,M,0.0,0000*48
$GPGLL,4323.1925,N,08024.6241,W,225359.647,A*2F
$GPGSA,A,3,18,01,11,19,22,17,08,28,07,30,,,1.8,1.1,1.4*3E
$GPRMC,225359.647,A,4323.1925,N,08024.6241,W,34.051220,292.15,180319,,*24
$GPGGA,225400.647,4323.1960,N,08024.6359,W,1,10,1.1,264.7,M,-34.9,M,0.0,0000*4E
$GPGLL,4323.1960,N,08024.6359,W,225400.647,A*2D
$GPGSA,A,3,18,01,11,19,22,17,08,28,07,30,,,1.8,1.1,1.4*3E
$GPGSV,3,1,12,18,36,53,40,1,58,83,42,11,51,60,40,3,8,122,0*4B
$GPGSV,3,2,12,19,21,249,37,22,16,101,30,17,47,259,46,8,11,65,37*79
$GPGSV,3,3,12,28,72,333,30,7,19,173,39,30,47,198,40,120,0,0,0*72
$GPRMC,225400.647,A,4323.1960,N,08024.6359,W,33.032846,292.42,180319,,*2C
$GPGGA,225401.647,4323.1995,N,08024.6473,W,1,10,1.1,264.6,M,-34.9,M,0.0,0000*4B
$GPGLL,4323.1995,N,08024.6473,W,225401.647,A*29
$GPGSA,A,3,18,01,11,19,22,17,08,28,07,30,,,1.8,1.1,1.4*3E
$GPRMC,225401.647,A,4323.1995,N,08024.6473,W,31.839447,292.73,180319,,*26
$GPGGA,225402.647,4323.2029,N,08024.6582,W,1,10,1.1,264.4,M,-34.9,M,0.0,0000*48
$GPGLL,4323.2029,N,08024.6582,W,225402.647,A*28
$GPGSA,A,3,18,01,11,19,22,17,08,28,07,30,,,1.8,1.1,1.4*3E
$GPRMC,225402.647,A,4323.2029,N,08024.6582,W,30.319213,292.91,180319,,*24
$GPGGA,225403.647,4323.2061,N,08024.6684,W,1,10,1.1,264.0,M,-34.9,M,0.0,0000*44
$GPGLL,4323.2061,N,08024.6684,W,225403.647,A*20
$GPGSA,A,3,18,01,11,19,22,17,08,28,07,30,,,1.8,1.1,1.4*3E
$GPRMC,225403.647,A,4323.2061,N,08024.6684,W,28.331291,293.29,180319,,*27
$GPGGA,225404.647,4323.2092,N,08024.6777,W,1,10,1.1,263.7,M,-34.9,M,0.0,0000*42
$GPGLL,4323.2092,N,08024.6777,W,225404.647,A*26
$GPGSA,A,3,18,01,11,19,22,17,08,28,07,30,,,1.8,1.1,1.4*3E
$GPRMC,225404.647,A,4323.2092,N,08024.6777,W,25.949992,294.45,180319,,*2C
$GPGGA,225405.647,4323.2122,N,08024.6860,W,1,10,1.1,263.5,M,-34.9,M,0.0,0000*42
$GPGLL,4323.2122,N,08024.6860,W,225405.647,A*24
$GPGSA,A,3,18,01,11,19,22,17,08,28,07,30,,,1.8,1.1,1.4*3E
$GPGSV,3,1,12,18,36,53,40,1,58,83,43,11,51,60,41,3,8,122,0*4B
$GPGSV,3,2,12,19,21,249,39,22,16,101,30,17,47,259,46,8,11,65,35*75
$GPGSV,3,3,12,28,72,333,31,7,19,173,40,30,47,198,44,120,0,0,0*79
$GPRMC,225405.647,A,4323.2122,N,08024.6860,W,23.386810,297.40,180319,,*2C
$GPGGA,225406.647,4323.2154,N,08024.6932,W,1,10,1.1,263.4,M,-34.9,M,0.0,0000*47
$GPGLL,4323.2154,N,08024.6932,W,225406.647,A*20
$GPGSA,A,3,18,01,11,19,22,17,08,28,07,30,,,1.8,1.1,1.4*3E
$GPRMC,225406.647,A,4323.2154,N,08024.6932,W,21.333967,304.42,180319,,*2C
$GPGGA,225407.647,4323.2192,N,08024.6989,W,1,10,1.1,263.5,M,-34.9,M,0.0,0000*4D
$GPGLL,4323.2192,N,08024.6989,W,225407.647,A*2B
$GPGSA,A,3,18,01,11,19,22,17,08,28,07,30,,,1.8,1.1,1.4*3E
$GPRMC,225407.647,A,4323.2192,N,08024.6989,W,20.439426,317.16,180319,,*20
$GPGGA,225408.647,4323.2239,N,08024.7031,W,1,09,1.3,263.7,M,-34.9,M,0.0,0000*43
$GPGLL,4323.2239,N,08024.7031,W,225408.647,A*2D
$GPGSA,A,3,18,01,11,19,22,17,08,28,30,,,,2.0,1.3,1.4*30
$GPRMC,225408.647,A,4323.2239,N,08024.7031,W,20.707808,332.83,180319,,*23
$GPGGA,225409.647,4323.2295,N,08024.7054,W,1,09,1.1,264.0,M,-34.9,M,0.0,0000*45
$GPGLL,4323.2295,N,08024.7054,W,225409.647,A*29
$GPGSA,A,3,18,01,11,19,17,08,28,07,30,,,,1.9,1.1,1.5*3E
$GPRMC,225409.647,A,4323.2295,N,08024.7054,W,21.714295,349.79,180319,,*23
$GPGGA,225410.647,4323.2358,N,08024.7054,W,1,10,1.1,264.3,M,-34.9,M,0.0,0000*46
$GPGLL,4323.2358,N,08024.7054,W,225410.647,A*21
$GPGSA,A,3,18,01,11,19,22,17,08,28,07,30,,,1.8,1.1,1.4*3E
$GPGSV,3,1,12,18,36,53,40,1,58,83,46,11,51,60,41,3,8,122,30*7D
$GPGSV,3,2,12,19,21,249,36,22,16,101,36,17,47,259,46,8,11,65,34*7D
$GPGSV,3,3,12,28,72,333,35,7,19,173,30,30,47,198,38,120,0,0,0*71
$GPRMC,225410.647,A,4323.2358,N,08024.7054,W,22.991503,4.56,180319,,*24
$GPGGA,225411.647,4323.2424,N,08024.7036,W,1,10,1.1,264.6,M,-34.9,M,0.0,0000*4A
$GPGLL,4323.2424,N,08024.7036,W,225411.647,A*28
$GPGSA,A,3,18,01,11,19,22,17,08,28,07,30,,,1.8,1.1,1.4*3E
$GPRMC,225411.647,A,4323.2424,N,08024.7036,W,24.096203,13.95,180319,,*1B
$GPGGA,225412.646,4323.2493,N,08024.7006,W,1,10,1.1,264.7,M,-34.9,M,0.0,0000*46
$GPGLL,4323.2493,N,08024.7006,W,225412.646,A*25
$GPGSA,A,3,18,01,11,19,22,17,08,28,07,30,,,1.8,1.1,1.4*3E
$GPRMC,225412.646,A,4323.2493,N,08024.7006,W,25.676279,18.35,180319,,*13
$GPGGA,225413.646,4323.2565,N,08024.6969,W,1,10,1.1,264.8,M,-34.9,M,0.0,0000*41
$GPGLL,4323.2565,N,08024.6969,W,225413.646,A*2D
$GPGSA,A,3,18,01,11,19,22,17,08,28,07,30,,,1.8,1.1,1.4*3E
$GPRMC,225413.646,A,4323.2565,N,08024.6969,W,27.324226,19.77,180319,,*16
$GPGGA,225414.646,4323.2640,N,08024.6929,W,1,10,1.1,264.7,M,-34.9,M,0.0,0000*49
$GPGLL,4323.2640,N,08024.6929,W,225414.646,A*2A
$GPGSA,A,3,18,01,11,19,22,17,08,28,07,30,,,1.8,1.1,1.4*3E
$GPRMC,225414.646,A,4323.2640,N,08024.6929,W,28.572978,20.12,180319,,*12
$GPGGA,225415.646,4323.2717,N,08024.6888,W,1,10,1.1,264.7,M,-34.9,M,0.0,0000*41
$GPGLL,4323.2717,N,08024.6888,W,225415.646,A*22
$GPGSA,A,3,18,01,11,19,22,17,08,28,07,30,,,1.8,1.1,1.4*3E
$GPGSV,3,1,12,18,36,53,41,1,58,83,43,11,51,60,39,3,8,122,28*7F
$GPGSV,3,2,12,19,21,249,33,22,16,101,39,17,47,260,35,8,11,65,39*74
$GPGSV,3,3,12,28,72,333,38,7,19,173,35,30,47,198,40,120,0,0,0*76
$GPRMC,225415.646,A,4323.2717,N,08024.6888,W,29.265562,19.40,180319,,*10
$GPGGA,225416.646,4323.2797,N,08024.6846,W,1,10,1.1,264.9,M,-34.9,M,0.0,0000*46
$GPGLL,4323.2797,N,08024.6846,W,225416.646,A*2B
$GPGSA,A,3,18,01,11,19,22,17,08,28,07,30,,,1.8,1.1,1.4*3E
$GPRMC,225416.646,A,4323.2797,N,08024.6846,W,30.061078,19.78,180319,,*12
$GPGGA,225417.646,4323.2878,N,08024.6802,W,1,10,1.1,264.9,M,-34.9,M,0.0,0000*49
$GPGLL,4323.2878,N,08024.6802,W,225417.646,A*24
$GPGSA,A,3,18,01,11,19,22,17,08,28,07,30,,,1.8,1.1,1.4*3E
$GPRMC,225417.646,A,4323.2878,N,08024.6802,W,30.630320,20.34,180319,,*13
$GPGGA,225418.646,4323.2959,N,08024.6758,W,1,10,1.1,265.0,M,-34.9,M,0.0,0000*4C
$GPGLL,4323.2959,N,08024.6758,W,225418.646,A*29
$GPGSA,A,3,18,01,11,19,22,17,08,28,07,30,,,1.8,1.1,1.4*3E
$GPRMC,225418.646,A,4323.2959,N,08024.6758,W,30.438278,20.23,180319,,*1E
$GPGGA,225419.646,4323.3039,N,08024.6716,W,1,10,1.1,265.2,M,-34.9,M,0.0,0000*4B
$GPGLL,4323.3039,N,08024.6716,W,225419.646,A*2C
$GPGSA,A,3,18,01,11,19,22,17,08,28,07,30,,,1.8,1.1,1.4*3E
$GPRMC,225419.646,A,4323.3039,N,08024.6716,W,29.914236,19.57,180319,,*13
$GPGGA,225420.646,4323.3118,N,08024.6676,W,1,10,1.1,265.3,M,-34.9,M,0.0,0000*45
$GPGLL,4323.3118,N,08024.6676,W,225420.646,A*23
$GPGSA,A,3,18,01,11,19,22,17,08,28,07,30,,,1.8,1.1,1.4*3E
$GPGSV,3,1,12,18,36,53,39,1,58,83,40,11,51,60,36,3,8,122,30*75
$GPGSV,3,2,12,19,21,249,33,22,16,101,37,17,47,260,38,8,11,65,38*76
$GPGSV,3,3,12,28,72,333,38,7,19,173,35,30,47,198,41,120,0,0,0*77
$GPRMC,225420.646,A,4323.3118,N,08024.6676,W,29.014586,19.49,180319,,*16
$GPGGA,225421.646,4323.3193,N,08024.6637,W,1,10,1.1,265.4,M,-34.9,M,0.0,0000*45
$GPGLL,4323.3193,N,08024.6637,W,225421.646,A*24
$GPGSA,A,3,18,01,11,19,22,17,08,28,07,30,,,1.8,1.1,1.4*3E
$GPRMC,225421.646,A,4323.3193,N,08024.6637,W,28.218056,19.61,180319,,*1C
$GPGGA,225422.646,4323.3266,N,08024.6601,W,1,10,1.1,265.4,M,-34.9,M,0.0,0000*4A
$GPGLL,4323.3266,N,08024.6601,W,225422.646,A*2B
$GPGSA,A,3,18,01,11,19,22,17,08,28,07,30,,,1.8,1.1,1.4*3E
$GPRMC,225422.646,A,4323.3266,N,08024.6601,W,27.194918,19.48,180319,,*13
$GPGGA,225423.646,4323.3335,N,08024.6566,W,1,10,1.1,265.4,M,-34.9,M,0.0,0000*4E
$GPGLL,4323.3335,N,08024.6566,W,225423.646,A*2F
$GPGSA,A,3,18,01,11,19,22,17,08,28,07,30,,,1.8,1.1,1.4*3E
$GPRMC,225423.646,A,4323.3335,N,08024.6566,W,25.203336,20.26,180319,,*1C
$GPGGA,225424.646,4323.3398,N,08024.6533,W,1,10,1.1,265.5,M,-34.9,M,0.0,0000*4F
$GPGLL,4323.3398,N,08024.6533,W,225424.646,A*2F
$GPGSA,A,3,18,01,11,19,22,17,08,28,07,30,,,1.8,1.1,1.4*3E
$GPRMC,225424.646,A,4323.3398,N,08024.6533,W,22.605030,22.47,180319,,*19
$GPGGA,225425.646,4323.3451,N,08024.6497,W,1,10,1.1,265.7,M,-34.9,M,0.0,0000*41
$GPGLL,4323.3451,N,08024.6497,W,225425.646,A*23
$GPGSA,A,3,18,01,11,19,22,17,08,28,07,30,,,1.8,1.1,1.4*3E
$GPGSV,3,1,12,18,36,53,42,1,58,83,45,11,51,60,44,3,8,122,38*71
$GPGSV,3,2,12,19,21,249,32,22,16,101,38,17,47,260,34,8,11,65,36*7A
$GPGSV,3,3,12,28,72,333,39,7,19,173,36,30,47,198,37,120,0,0,0*74
$GPRMC,225425.646,A,4323.3451,N,08024.6497,W,20.675516,30.29,180319,,*1A
$GPGGA,225426.646,4323.3497,N,08024.6449,W,1,10,1.1,265.8,M,-34.9,M,0.0,0000*44
$GPGLL,4323.3497,N,08024.6449,W,225426.646,A*29
$GPGSA,A,3,18,01,11,19,22,17,08,28,07,30,,,1.8,1.1,1.4*3E
$GPRMC,225426.646,A,4323.3497,N,08024.6449,W,20.793150,42.57,180319,,*13
$GPGGA,225427.646,4323.3535,N,08024.6387,W,1,07,1.6,265.6,M,-34.9,M,0.0,0000*46
$GPGLL,4323.3535,N,08024.6387,W,225427.646,A*24
$GPGSA,A,3,18,01,22,17,08,28,30,,,,,,2.6,1.6,2.1*3D
$GPRMC,225427.646,A,4323.3535,N,08024.6387,W,21.849678,55.42,180319,,*18
$GPGGA,225428.645,4323.3566,N,08024.6312,W,1,10,1.1,265.3,M,-34.9,M,0.0,0000*44
$GPGLL,4323.3566,N,08024.6312,W,225428.645,A*22
$GPGSA,A,3,18,01,11,19,22,17,08,28,07,30,,,1.8,1.1,1.4*3E
$GPRMC,225428.645,A,4323.3566,N,08024.6312,W,22.915390,64.06,180319,,*14
$GPGGA,225429.645,4323.3591,N,08024.6229,W,1,09,1.2,265.0,M,-34.9,M,0.0,0000*4C
$GPGLL,4323.3591,N,08024.6229,W,225429.645,A*22
$GPGSA,A,3,18,01,11,19,22,17,28,07,30,,,,2.1,1.2,1.8*33
$GPRMC,225429.645,A,4323.3591,N,08024.6229,W,23.500090,69.54,180319,,*14
$GPGGA,225430.645,4323.3611,N,08024.6143,W,1,08,1.6,264.5,M,-34.9,M,0.0,0000*41
$GPGLL,4323.3611,N,08024.6143,W,225430.645,A*2E
$GPGSA,A,3,18,01,11,22,17,28,07,30,,,,,3.0,1.6,2.6*32
$GPGSV,3,1,12,18,36,53,39,1,58,83,36,11,51,60,34,3,8,122,37*71
$GPGSV,3,2,12,19,21,249,27,22,16,101,40,17,47,260,41,8,11,65,27*73
$GPGSV,3,3,12,28,72,333,37,7,19,173,40,30,47,198,36,120,0,0,0*7A
$GPRMC,225430.645,A,4323.3611,N,08024.6143,W,24.024801,71.75,180319,,*16
$GPGGA,225431.645,4323.3630,N,08024.6052,W,1,09,1.2,264.1,M,-34.9,M,0.0,0000*43
$GPGLL,4323.3630,N,08024.6052,W,225431.645,A*2D
$GPGSA,A,3,18,01,11,19,22,17,28,07,30,,,,2.1,1.2,1.8*33
$GPRMC,225431.645,A,4323.3630,N,08024.6052,W,24.536489,73.26,180319,,*1B
$GPGGA,225432.645,4323.3648,N,08024.5959,W,1,09,1.2,263.9,M,-34.9,M,0.0,0000*41
$GPGLL,4323.3648,N,08024.5959,W,225432.645,A*20
$GPGSA,A,3,18,01,11,19,22,17,28,07,30,,,,2.1,1.2,1.8*33
$GPRMC,225432.645,A,4323.3648,N,08024.5959,W,24.482280,73.92,180319,,*18
$GPGGA,225433.645,4323.3665,N,08024.5866,W,1,09,1.2,263.9,M,-34.9,M,0.0,0000*42
$GPGLL,4323.3665,N,08024.5866,W,225433.645,A*23
$GPGSA,A,3,18,01,11,19,22,17,28,07,30,,,,2.1,1.2,1.8*33
$GPRMC,225433.645,A,4323.3665,N,08024.5866,W,24.918862,74.32,180319,,*1E
$GPGGA,225434.645,4323.3682,N,08024.5771,W,1,10,1.1,264.0,M,-34.9,M,0.0,0000*40
$GPGLL,4323.3682,N,08024.5771,W,225434.645,A*24
$GPGSA,A,3,18,01,11,19,22,17,08,28,07,30,,,1.8,1.1,1.4*3E
$GPRMC,225434.645,A,4323.3682,N,08024.5771,W,24.935134,74.80,180319,,*15
$GPGGA,225435.645,4323.3698,N,08024.5676,W,1,10,1.1,264.2,M,-34.9,M,0.0,0000*4E
$GPGLL,4323.3698,N,08024.5676,W,225435.645,A*28
$GPGSA,A,3,18,01,11,19,22,17,08,28,07,30,,,1.8,1.1,1.4*3E
$GPGSV,3,1,12,18,36,53,42,1,58,83,36,11,51,60,33,3,8,122,35*78
$GPGSV,3,2,12,19,21,249,28,22,16,101,40,17,47,260,43,8,11,65,28*71
$GPGSV,3,3,12,28,72,333,37,7,19,173,38,30,47,198,38,120,0,0,0*7B
$GPRMC,225435.645,A,4323.3698,N,08024.5676,W,24.926731,75.26,180319,,*15
$GPGGA,225436.645,4323.3714,N,08024.5581,W,1,11,1.0,264.4,M,-34.9,M,0.0,0000*45
$GPGLL,4323.3714,N,08024.5581,W,225436.645,A*25
$GPGSA,A,3,18,01,11,03,19,22,17,08,28,07,30,,1.7,1.0,1.4*33
$GPRMC,225436.645,A,4323.3714,N,08024.5581,W,24.932252,76.02,180319,,*18
$GPGGA,225437.645,4323.3729,N,08024.5486,W,1,10,1.3,264.2,M,-34.9,M,0.0,0000*48
$GPGLL,4323.3729,N,08024.5486,W,225437.645,A*2C
$GPGSA,A,3,18,01,11,03,22,17,08,28,07,30,,,2.3,1.3,1.8*33
$GPRMC,225437.645,A,4323.3729,N,08024.5486,W,24.820662,76.74,180319,,*15
$GPGGA,225438.645,4323.3744,N,08024.5392,W,1,09,1.4,263.9,M,-34.9,M,0.0,0000*4D
$GPGLL,4323.3744,N,08024.5392,W,225438.645,A*2A
$GPGSA,A,3,18,01,11,22,17,08,28,07,30,,,,2.3,1.4,1.9*36
$GPRMC,225438.645,A,4323.3744,N,08024.5392,W,24.664275,77.60,180319,,*1B
$GPGGA,225439.645,4323.3758,N,08024.5299,W,1,09,1.4,263.6,M,-34.9,M,0.0,0000*44
$GPGLL,4323.3758,N,08024.5299,W,225439.645,A*2C
$GPGSA,A,3,18,01,11,22,17,08,28,07,30,,,,2.3,1.4,1.9*36
$GPRMC,225439.645,A,4323.3758,N,08024.5299,W,24.528070,77.63,180319,,*12
$GPGGA,225440.645,4323.3772,N,08024.5207,W,1,10,1.3,263.1,M,-34.9,M,0.0,0000*4D
$GPGLL,4323.3772,N,08024.5207,W,225440.645,A*2D
$GPGSA,A,3,18,01,11,03,22,17,08,28,07,30,,,2.3,1.3,1.8*33
$GPGSV,3,1,12,18,36,53,42,1,58,82,31,11,50,59,34,3,8,122,32*75
$GPGSV,3,2,12,19,21,249,22,22,16,101,41,17,47,260,43,8,11,65,32*71
$GPGSV,3,3,12,28,73,334,36,7,19,173,34,30,46,198,40,120,0,0,0*7E
$GPRMC,225440.645,A,4323.3772,N,08024.5207,W,24.205307,77.28,180319,,*17
$GPGGA,225441.645,4323.3786,N,08024.5118,W,1,09,1.4,262.7,M,-34.9,M,0.0,0000*42
$GPGLL,4323.3786,N,08024.5118,W,225441.645,A*2A
$GPGSA,A,3,18,01,11,22,17,08,28,07,30,,,,2.3,1.4,1.9*36
$GPRMC,225441.645,A,4323.3786,N,08024.5118,W,23.642905,77.74,180319,,*11
$GPGGA,225442.645,4323.3800,N,08024.5031,W,1,09,1.4,262.6,M,-34.9,M,0.0,0000*4B
$GPGLL,4323.3800,N,08024.5031,W,225442.645,A*22
$GPGSA,A,3,18,01,11,22,17,08,28,07,30,,,,2.3,1.4,1.9*36
$GPRMC,225442.645,A,4323.3800,N,08024.5031,W,23.024763,77.38,180319,,*19
$GPGGA,225443.645,4323.3813,N,08024.4946,W,1,09,1.4,262.7,M,-34.9,M,0.0,0000*41
$GPGLL,4323.3813,N,08024.4946,W,225443.645,A*29
$GPGSA,A,3,18,01,11,22,17,08,28,07,30,,,,2.3,1.4,1.9*36
$GPRMC,225443.645,A,4323.3813,N,08024.4946,W,22.461068,76.91,180319,,*18
$GPGGA,225444.645,4323.3827,N,08024.4865,W,1,08,1.6,262.8,M,-34.9,M,0.0,0000*4D
$GPGLL,4323.3827,N,08024.4865,W,225444.645,A*29
$GPGSA,A,3,18,01,11,22,17,28,07,30,,,,,3.0,1.6,2.6*32
$GPRMC,225444.645,A,4323.3827,N,08024.4865,W,21.937975,76.67,180319,,*19
$GPGGA,225445.644,4323.3842,N,08024.4785,W,1,09,1.4,262.8,M,-34.9,M,0.0,0000*4C
$GPGLL,4323.3842,N,08024.4785,W,225445.644,A*2B
$GPGSA,A,3,18,01,11,22,17,08,28,07,30,,,,2.3,1.4,1.9*36
$GPGSV,3,1,12,18,36,53,41,1,58,82,34,11,50,59,33,3,8,122,27*70
$GPGSV,3,2,12,19,21,249,22,22,16,101,36,17,47,260,43,8,11,65,28*7A
$GPGSV,3,3,12,28,73,334,36,7,19,173,35,30,46,198,40,120,0,0,0*7F
$GPRMC,225445.644,A,4323.3842,N,08024.4785,W,21.529062,76.17,180319,,*10
$GPGGA,225446.644,4323.3856,N,08024.4706,W,1,08,1.6,262.8,M,-34.9,M,0.0,0000*42
$GPGLL,4323.3856,N,08024.4706,W,225446.644,A*26
$GPGSA,A,3,18,01,11,22,17,28,07,30,,,,,3.0,1.6,2.6*32
$GPRMC,225446.644,A,4323.3856,N,08024.4706,W,21.447362,76.36,180319,,*14
$GPGGA,225447.644,4323.3870,N,08024.4628,W,1,08,1.6,262.8,M,-34.9,M,0.0,0000*4A
$GPGLL,4323.3870,N,08024.4628,W,225447.644,A*2E
$GPGSA,A,3,18,01,11,22,17,28,07,30,,,,,3.0,1.6,2.6*32
$GPRMC,225447.644,A,4323.3870,N,08024.4628,W,20.782747,75.01,180319,,*13
$GPGGA,225448.644,4323.3885,N,08024.4554,W,1,09,1.6,263.0,M,-34.9,M,0.0,0000*4F
$GPGLL,4323.3885,N,08024.4554,W,225448.644,A*23
$GPGSA,A,3,18,01,11,03,22,17,28,07,30,,,,2.9,1.6,2.4*3B
$GPRMC,225448.644,A,4323.3885,N,08024.4554,W,20.137214,75.86,180319,,*1A
$GPGGA,225449.644,4323.3898,N,08024.4482,W,1,09,1.6,263.3,M,-34.9,M,0.0,0000*4B
$GPGLL,4323.3898,N,08024.4482,W,225449.644,A*24
$GPGSA,A,3,18,01,11,03,22,17,28,07,30,,,,2.9,1.6,2.4*3B
$GPRMC,225449.644,A,4323.3898,N,08024.4482,W,19.435761,76.08,180319,,*12
$GPGGA,225450.644,4323.3910,N,08024.4413,W,1,09,1.6,263.5,M,-34.9,M,0.0,0000*4C
$GPGLL,4323.3910,N,08024.4413,W,225450.644,A*25
$GPGSA,A,3,18,01,11,03,22,17,28,07,30,,,,2.9,1.6,2.4*3B
$GPGSV,3,1,12,18,36,53,41,1,58,82,34,11,50,59,31,3,8,122,34*70
$GPGSV,3,2,12,19,21,249,22,22,16,101,37,17,47,260,43,8,11,65,26*75
$GPGSV,3,3,12,28,73,334,35,7,19,173,31,30,46,198,30,120,0,0,0*7F
$GPRMC,225450.644,A,4323.3910,N,08024.4413,W,18.397699,77.76,180319,,*13
$GPGGA,225451.644,4323.3920,N,08024.4351,W,1,09,1.6,263.5,M,-34.9,M,0.0,0000*4F
$GPGLL,4323.3920,N,08024.4351,W,225451.644,A*26
$GPGSA,A,3,18,01,11,03,22,17,28,07,30,,,,2.9,1.6,2.4*3B
$GPRMC,225451.644,A,4323.3920,N,08024.4351,W,16.013123,80.82,180319,,*14
$GPGGA,225452.644,4323.3923,N,08024.4298,W,1,09,1.4,263.6,M,-34.9,M,0.0,0000*4A
$GPGLL,4323.3923,N,08024.4298,W,225452.644,A*22
$GPGSA,A,3,18,01,11,22,17,08,28,07,30,,,,2.3,1.4,1.9*36
$GPRMC,225452.644,A,4323.3923,N,08024.4298,W,13.207528,90.85,180319,,*1B
$GPGGA,225453.644,4323.3916,N,08024.4253,W,1,09,1.2,263.6,M,-34.9,M,0.0,0000*4C
$GPGLL,4323.3916,N,08024.4253,W,225453.644,A*22
$GPGSA,A,3,18,01,11,03,19,17,28,07,30,,,,2.1,1.2,1.8*30
$GPRMC,225453.644,A,4323.3916,N,08024.4253,W,12.334096,110.32,180319,,*2E
$GPGGA,225454.644,4323.3898,N,08024.4215,W,1,07,1.6,263.6,M,-34.9,M,0.0,0000*44
$GPGLL,4323.3898,N,08024.4215,W,225454.644,A*20
$GPGSA,A,3,18,01,11,17,28,07,30,,,,,,3.4,1.6,2.9*39
$GPRMC,225454.644,A,4323.3898,N,08024.4215,W,12.601346,129.03,180319,,*29
$GPGGA,225455.644,4323.3872,N,08024.4185,W,1,08,1.2,263.7,M,-34.9,M,0.0,0000*41
$GPGLL,4323.3872,N,08024.4185,W,225455.644,A*2F
$GPGSA,A,3,18,01,11,19,22,17,07,30,,,,,2.3,1.2,1.9*3A
$GPGSV,3,1,12,18,36,53,43,1,58,82,43,11,50,59,44,3,8,122,25*70
$GPGSV,3,2,12,19,21,249,34,22,16,101,32,17,47,260,42,8,11,65,27*77
$GPGSV,3,3,12,28,73,334,27,7,19,173,42,30,46,198,37,120,0,0,0*7F
$GPRMC,225455.644,A,4323.3872,N,08024.4185,W,12.879332,144.57,180319,,*2E
$GPGGA,225456.644,4323.3839,N,08024.4166,W,1,09,1.2,264.2,M,-34.9,M,0.0,0000*43
$GPGLL,4323.3839,N,08024.4166,W,225456.644,A*2E
$GPGSA,A,3,18,01,11,19,22,17,28,07,30,,,,2.1,1.2,1.8*33
$GPRMC,225456.644,A,4323.3839,N,08024.4166,W,13.159122,159.21,180319,,*2B
$GPGGA,225457.644,4323.3802,N,08024.4156,W,1,10,1.2,265.6,M,-34.9,M,0.0,0000*44
$GPGLL,4323.3802,N,08024.4156,W,225457.644,A*24
$GPGSA,A,3,18,01,11,03,19,22,17,28,07,30,,,2.0,1.2,1.7*3E
$GPRMC,225457.644,A,4323.3802,N,08024.4156,W,13.211200,166.66,180319,,*22
$GPGGA,225458.644,4323.3766,N,08024.4150,W,1,11,1.0,267.0,M,-34.9,M,0.0,0000*47
$GPGLL,4323.3766,N,08024.4150,W,225458.644,A*20
$GPGSA,A,3,18,01,11,03,19,22,17,08,28,07,30,,1.7,1.0,1.4*33
$GPRMC,225458.644,A,4323.3766,N,08024.4150,W,12.630571,167.37,180319,,*24
$GPGGA,225459.644,4323.3730,N,08024.4142,W,1,09,1.4,269.1,M,-34.9,M,0.0,0000*44
$GPGLL,4323.3730,N,08024.4142,W,225459.644,A*21
$GPGSA,A,3,18,01,11,22,17,08,28,07,30,,,,2.3,1.4,1.9*36
$GPRMC,225459.644,A,4323.3730,N,08024.4142,W,11.781815,160.43,180319,,*26
$GPGGA,225500.644,4323.3699,N,08024.4125,W,1,08,1.4,271.0,M,-34.9,M,0.0,0000*43
$GPGLL,4323.3699,N,08024.4125,W,225500.644,A*2F
$GPGSA,A,3,18,01,11,22,17,08,07,30,,,,,2.4,1.4,1.9*3B
$GPGSV,3,1,12,18,36,53,42,1,58,82,46,11,50,59,43,3,8,122,23*75
$GPGSV,3,2,12,19,21,249,23,22,16,101,37,17,47,260,45,8,11,65,32*77
$GPGSV,3,3,12,28,73,334,26,7,19,173,41,30,46,198,39,120,0,0,0*73
$GPRMC,225500.644,A,4323.3699,N,08024.4125,W,11.406509,144.12,180319,,*26
$GPGGA,225501.643,4323.3676,N,08024.4098,W,1,08,1.6,272.4,M,-34.9,M,0.0,0000*46
$GPGLL,4323.3676,N,08024.4098,W,225501.643,A*2F
$GPGSA,A,3,18,01,11,03,22,17,07,30,,,,,2.9,1.6,2.4*31
$GPRMC,225501.643,A,4323.3676,N,08024.4098,W,11.312632,124.01,180319,,*2B
$GPGGA,225502.643,4323.3662,N,08024.4060,W,1,09,1.2,273.3,M,-34.9,M,0.0,0000*44
$GPGLL,4323.3662,N,08024.4060,W,225502.643,A*2E
$GPGSA,A,3,18,01,11,19,22,17,28,07,30,,,,2.2,1.2,1.8*30
$GPRMC,225502.643,A,4323.3662,N,08024.4060,W,11.682230,104.21,180319,,*20
$GPGGA,225503.643,4323.3658,N,08024.4017,W,1,09,1.2,273.5,M,-34.9,M,0.0,0000*4A
$GPGLL,4323.3658,N,08024.4017,W,225503.643,A*26
$GPGSA,A,3,18,01,11,19,22,17,28,07,30,,,,2.2,1.2,1.8*30
$GPRMC,225503.643,A,4323.3658,N,08024.4017,W,12.376389,86.61,180319,,*19
$GPGGA,225504.643,4323.3662,N,08024.3969,W,1,09,1.1,273.5,M,-34.9,M,0.0,0000*40
$GPGLL,4323.3662,N,08024.3969,W,225504.643,A*2F
$GPGSA,A,3,18,11,19,22,17,08,28,07,30,,,,2.0,1.1,1.6*36
$GPRMC,225504.643,A,4323.3662,N,08024.3969,W,12.883660,79.47,180319,,*17
$GPGGA,225505.643,4323.3669,N,08024.3918,W,1,07,1.9,273.3,M,-34.9,M,0.0,0000*4C
$GPGLL,4323.3669,N,08024.3918,W,225505.643,A*23
$GPGSA,A,3,18,11,22,17,28,07,30,,,,,,3.9,1.9,3.4*36
$GPGSV,3,1,12,18,36,53,35,1,58,82,25,11,50,59,38,3,8,122,27*78
$GPGSV,3,2,12,19,21,249,23,22,16,101,42,17,47,260,42,8,11,65,26*77
$GPGSV,3,3,12,28,73,334,37,7,19,173,31,30,46,198,38,131,0,0,34*42
$GPRMC,225505.643,A,4323.3669,N,08024.3918,W,13.333595,78.43,180319,,*16
$GPGGA,225506.643,4323.3677,N,08024.3867,W,1,07,1.9,273.1,M,-34.9,M,0.0,0000*4B
$GPGLL,4323.3677,N,08024.3867,W,225506.643,A*26
$GPGSA,A,3,18,11,22,17,28,07,30,,,,,,3.9,1.9,3.4*36
$GPRMC,225506.643,A,4323.3677,N,08024.3867,W,13.040140,77.37,180319,,*14
$GPGGA,225507.643,4323.3685,N,08024.3816,W,1,07,1.9,272.8,M,-34.9,M,0.0,0000*49
$GPGLL,4323.3685,N,08024.3816,W,225507.643,A*2C
$GPGSA,A,3,18,11,22,17,28,07,30,,,,,,3.9,1.9,3.4*36
$GPRMC,225507.643,A,4323.3685,N,08024.3816,W,12.738948,77.37,180319,,*17
$GPGGA,225508.643,4323.3692,N,08024.3769,W,1,07,1.7,272.6,M,-34.9,M,0.0,0000*47
$GPGLL,4323.3692,N,08024.3769,W,225508.643,A*22
$GPGSA,A,3,18,11,22,17,08,28,30,,,,,,2.9,1.7,2.4*37
$GPRMC,225508.643,A,4323.3692,N,08024.3769,W,11.461291,77.39,180319,,*14
$GPGGA,225509.643,4323.3699,N,08024.3727,W,1,07,1.7,272.4,M,-34.9,M,0.0,0000*45
$GPGLL,4323.3699,N,08024.3727,W,225509.643,A*22
$GPGSA,A,3,18,11,22,17,08,28,30,,,,,,2.9,1.7,2.4*37
$GPRMC,225509.643,A,4323.3699,N,08024.3727,W,10.038641,77.26,180319,,*1A
$GPGGA,225510.643,4323.3705,N,08024.3690,W,1,07,1.7,272.4,M,-34.9,M,0.0,0000*44
$GPGLL,4323.3705,N,08024.3690,W,225510.643,A*23
$GPGSA,A,3,18,11,22,17,08,28,30,,,,,,2.9,1.7,2.4*37
$GPGSV,3,1,12,18,36,53,38,1,58,82,23,11,50,59,39,3,8,122,27*72
$GPGSV,3,2,12,19,21,249,23,22,16,101,40,17,47,260,41,8,11,65,33*72
$GPGSV,3,3,12,28,73,334,36,7,19,173,23,30,46,198,37,131,0,0,31*4A
$GPRMC,225510.643,A,4323.3705,N,08024.3690,W,8.635089,77.65,180319,,*2C
$GPGGA,225511.643,4323.3709,N,08024.3659,W,1,07,1.7,272.5,M,-34.9,M,0.0,0000*4D
$GPGLL,4323.3709,N,08024.3659,W,225511.643,A*2B
$GPGSA,A,3,18,11,22,17,08,28,30,,,,,,2.9,1.7,2.4*37
$GPRMC,225511.643,A,4323.3709,N,08024.3659,W,7.514372,77.46,180319,,*2D
$GPGGA,225512.643,4323.3714,N,08024.3632,W,1,06,2.0,272.6,M,-34.9,M,0.0,0000*49
$GPGLL,4323.3714,N,08024.3632,W,225512.643,A*29
$GPGSA,A,3,18,11,22,17,28,30,,,,,,,4.0,2.0,3.4*35
$GPRMC,225512.643,A,4323.3714,N,08024.3632,W,6.558148,77.15,180319,,*2B
$GPGGA,225513.643,4323.3718,N,08024.3609,W,1,06,2.0,272.8,M,-34.9,M,0.0,0000*42
$GPGLL,4323.3718,N,08024.3609,W,225513.643,A*2C
$GPGSA,A,3,18,11,22,17,28,30,,,,,,,4.0,2.0,3.4*35
$GPRMC,225513.643,A,4323.3718,N,08024.3609,W,5.367022,76.67,180319,,*2E
$GPGGA,225514.643,4323.3721,N,08024.3590,W,1,06,2.0,272.9,M,-34.9,M,0.0,0000*4D
$GPGLL,4323.3721,N,08024.3590,W,225514.643,A*22
$GPGSA,A,3,18,11,22,17,28,30,,,,,,,4.0,2.0,3.4*35
$GPRMC,225514.643,A,4323.3721,N,08024.3590,W,4.861670,77.26,180319,,*29
$GPGGA,225515.643,4323.3724,N,08024.3571,W,1,06,2.0,272.9,M,-34.9,M,0.0,0000*46
$GPGLL,4323.3724,N,08024.3571,W,225515.643,A*29
$GPGSA,A,3,18,11,22,17,28,30,,,,,,,4.0,2.0,3.4*35
$GPGSV,3,1,12,18,36,53,41,1,58,82,25,11,50,59,37,3,8,122,0*41
$GPGSV,3,2,12,19,21,249,0,22,16,101,41,17,47,260,42,8,11,65,23*40
$GPGSV,3,3,12,28,73,334,35,7,19,173,23,30,46,198,36,131,0,0,32*4B
$GPRMC,225515.643,A,4323.3724,N,08024.3571,W,5.178282,75.55,180319,,*2D
$GPGGA,225516.643,4323.3728,N,08024.3551,W,1,06,2.0,273.1,M,-34.9,M,0.0,0000*42
$GPGLL,4323.3728,N,08024.3551,W,225516.643,A*24
$GPGSA,A,3,18,11,22,17,28,30,,,,,,,4.0,2.0,3.4*35
$GPRMC,225516.643,A,4323.3728,N,08024.3551,W,5.588334,74.18,180319,,*2F
$GPGGA,225517.642,4323.3732,N,08024.3531,W,1,07,1.7,272.9,M,-34.9,M,0.0,0000*43
$GPGLL,4323.3732,N,08024.3531,W,225517.642,A*29
$GPGSA,A,3,18,01,11,22,17,28,30,,,,,,3.2,1.7,2.6*36
$GPRMC,225517.642,A,4323.3732,N,08024.3531,W,6.115259,73.78,180319,,*2A
$GPGGA,225518.642,4323.3740,N,08024.3510,W,1,07,1.7,272.3,M,-34.9,M,0.0,0000*40
$GPGLL,4323.3740,N,08024.3510,W,225518.642,A*20
$GPGSA,A,3,18,01,11,22,17,28,30,,,,,,3.2,1.7,2.6*36
$GPRMC,225518.642,A,4323.3740,N,08024.3510,W,7.182699,61.66,180319,,*28
$GPGGA,225519.642,4323.3752,N,08024.3486,W,1,08,1.6,271.6,M,-34.9,M,0.0,0000*44
$GPGLL,4323.3752,N,08024.3486,W,225519.642,A*2C
$GPGSA,A,3,18,01,11,22,17,28,07,30,,,,,3.0,1.6,2.6*32
$GPRMC,225519.642,A,4323.3752,N,08024.3486,W,8.167329,62.12,180319,,*2E
$GPGGA,225520.642,4323.3763,N,08024.3458,W,1,09,1.2,270.7,M,-34.9,M,0.0,0000*4A
$GPGLL,4323.3763,N,08024.3458,W,225520.642,A*27
$GPGSA,A,3,18,01,11,19,22,17,28,07,30,,,,2.2,1.2,1.8*30
$GPGSV,3,1,12,18,36,53,41,1,58,82,38,11,50,59,33,3,9,122,0*48
$GPGSV,3,2,12,19,22,250,31,22,16,101,38,17,48,260,43,8,11,65,25*7F
$GPGSV,3,3,12,28,73,334,33,7,19,173,28,30,46,198,39,131,0,0,32*49
$GPRMC,225520.642,A,4323.3763,N,08024.3458,W,9.214272,71.05,180319,,*28
$GPGGA,225521.642,4323.3771,N,08024.3424,W,1,07,1.7,269.6,M,-34.9,M,0.0,0000*41
$GPGLL,4323.3771,N,08024.3424,W,225521.642,A*2E
$GPGSA,A,3,18,01,11,22,17,28,30,,,,,,3.2,1.7,2.7*37
$GPRMC,225521.642,A,4323.3771,N,08024.3424,W,10.191923,78.86,180319,,*1A
$GPGGA,225522.642,4323.3778,N,08024.3385,W,1,08,1.4,268.6,M,-34.9,M,0.0,0000*4A
$GPGLL,4323.3778,N,08024.3385,W,225522.642,A*28
$GPGSA,A,3,18,01,11,19,22,17,28,30,,,,,2.3,1.4,1.8*30
$GPRMC,225522.642,A,4323.3778,N,08024.3385,W,11.529620,80.23,180319,,*1E
$GPGGA,225523.642,4323.3785,N,08024.3341,W,1,08,1.5,267.6,M,-34.9,M,0.0,0000*4F
$GPGLL,4323.3785,N,08024.3341,W,225523.642,A*23
$GPGSA,A,3,18,01,11,22,17,08,28,30,,,,,2.5,1.5,1.9*36
$GPRMC,225523.642,A,4323.3785,N,08024.3341,W,12.790583,79.00,180319,,*1B
$GPGGA,225524.642,4323.3794,N,08024.3293,W,1,07,1.7,266.9,M,-34.9,M,0.0,0000*45
$GPGLL,4323.3794,N,08024.3293,W,225524.642,A*2A
$GPGSA,A,3,18,01,11,22,17,28,30,,,,,,3.2,1.7,2.7*37
$GPRMC,225524.642,A,4323.3794,N,08024.3293,W,13.863679,76.72,180319,,*1C
$GPGGA,225525.642,4323.3805,N,08024.3242,W,1,07,1.7,266.2,M,-34.9,M,1.3,0000*46
$GPGLL,4323.3805,N,08024.3242,W,225525.642,A*20
$GPGSA,A,3,18,01,11,22,17,28,30,,,,,,3.2,1.7,2.7*37
$GPGSV,3,1,12,18,36,53,41,1,58,82,35,11,50,59,32,3,9,122,0*44
$GPGSV,3,2,12,19,22,250,24,22,16,101,36,17,48,260,43,8,11,65,26*76
$GPGSV,3,3,12,28,73,334,32,7,19,173,26,30,46,198,35,131,0,0,33*4B
$GPRMC,225525.642,A,4323.3805,N,08024.3242,W,14.256569,73.98,180319,,*1E
$GPGGA,225526.642,4323.3818,N,08024.3190,W,1,07,1.7,265.7,M,-34.9,M,1.3,0000*43
$GPGLL,4323.3818,N,08024.3190,W,225526.642,A*23
$GPGSA,A,3,18,01,11,22,17,28,30,,,,,,3.2,1.7,2.7*37
$GPRMC,225526.642,A,4323.3818,N,08024.3190,W,14.558609,72.30,180319,,*12
$GPGGA,225527.642,4323.3831,N,08024.3137,W,1,07,1.7,265.0,M,-34.9,M,1.3,0000*43
$GPGLL,4323.3831,N,08024.3137,W,225527.642,A*24
$GPGSA,A,3,18,01,11,22,17,28,30,,,,,,3.2,1.7,2.7*37
$GPRMC,225527.642,A,4323.3831,N,08024.3137,W,14.870152,72.79,180319,,*16
$GPGGA,225528.642,4323.3843,N,08024.3083,W,1,08,1.6,264.2,M,-34.9,M,2.3,0000*49
$GPGLL,4323.3843,N,08024.3083,W,225528.642,A*20
$GPGSA,A,3,18,01,11,22,17,28,07,30,,,,,3.0,1.6,2.6*32
$GPRMC,225528.642,A,4323.3843,N,08024.3083,W,15.178979,75.13,180319,,*18
$GPGGA,225529.642,4323.3854,N,08024.3028,W,1,08,1.6,263.5,M,-34.9,M,3.3,0000*4E
$GPGLL,4323.3854,N,08024.3028,W,225529.642,A*26
$GPGSA,A,3,18,01,11,22,17,28,07,30,,,,,3.0,1.6,2.6*32
$GPRMC,225529.642,A,4323.3854,N,08024.3028,W,15.657394,75.79,180319,,*11
$GPGGA,225530.642,4323.3865,N,08024.2970,W,1,07,1.8,262.7,M,-34.9,M,4.3,0000*44
$GPGLL,4323.3865,N,08024.2970,W,225530.642,A*29
$GPGSA,A,3,18,01,11,17,08,28,30,,,,,,2.7,1.8,2.0*33
$GPGSV,3,1,12,18,36,53,42,1,58,82,34,11,50,59,36,3,9,122,0*42
$GPGSV,3,2,12,19,22,250,23,22,16,101,23,17,48,260,43,8,11,65,29*7A
$GPGSV,3,3,12,28,73,334,35,7,19,173,26,30,46,198,40,131,0,0,34*49
$GPRMC,225530.642,A,4323.3865,N,08024.2970,W,15.830535,78.30,180319,,*1C
$GPGGA,225531.642,4323.3875,N,08024.2912,W,1,07,1.6,262.2,M,-34.9,M,1.3,0000*4E
$GPGLL,4323.3875,N,08024.2912,W,225531.642,A*2D
$GPGSA,A,3,18,01,11,17,28,07,30,,,,,,3.4,1.6,2.9*39
$GPRMC,225531.642,A,4323.3875,N,08024.2912,W,15.830506,78.50,180319,,*1E
$GPGGA,225532.642,4323.3886,N,08024.2854,W,1,07,1.6,261.7,M,-34.9,M,1.3,0000*44
$GPGLL,4323.3886,N,08024.2854,W,225532.642,A*21
$GPGSA,A,3,18,01,11,17,28,07,30,,,,,,3.4,1.6,2.9*39
$GPRMC,225532.642,A,4323.3886,N,08024.2854,W,15.770709,77.70,180319,,*19
$GPGGA,225533.641,4323.3896,N,08024.2796,W,1,08,1.5,261.3,M,-34.9,M,1.3,0000*4E
$GPGLL,4323.3896,N,08024.2796,W,225533.641,A*23
$GPGSA,A,3,18,01,11,17,08,28,07,30,,,,,2.4,1.5,1.9*30
$GPRMC,225533.641,A,4323.3896,N,08024.2796,W,15.661151,78.10,180319,,*18
$GPGGA,225534.641,4323.3907,N,08024.2738,W,1,07,1.6,261.5,M,-34.9,M,2.3,0000*4D
$GPGLL,4323.3907,N,08024.2738,W,225534.641,A*29
$GPGSA,A,3,18,01,11,17,28,07,30,,,,,,3.4,1.6,2.9*39
$GPRMC,225534.641,A,4323.3907,N,08024.2738,W,15.511904,76.02,180319,,*13
$GPGGA,225535.641,4323.3918,N,08024.2680,W,1,07,1.8,261.8,M,-34.9,M,3.3,0000*42
$GPGLL,4323.3918,N,08024.2680,W,225535.641,A*24
$GPGSA,A,3,18,01,11,17,08,28,30,,,,,,2.7,1.8,2.0*33
$GPGSV,3,1,12,18,36,53,37,1,58,82,36,11,50,59,33,3,9,122,0*47
$GPGSV,3,2,12,19,22,250,26,22,16,101,23,17,48,260,43,8,11,65,32*75
$GPGSV,3,3,12,28,73,334,34,7,19,173,26,30,46,198,34,131,0,0,28*46
$GPRMC,225535.641,A,4323.3918,N,08024.2680,W,15.336626,78.11,180319,,*1E
$GPGGA,225536.641,4323.3928,N,08024.2624,W,1,07,1.8,262.0,M,-34.9,M,4.3,0000*40
$GPGLL,4323.3928,N,08024.2624,W,225536.641,A*2A
$GPGSA,A,3,18,01,11,17,08,28,30,,,,,,2.7,1.8,2.0*33
$GPRMC,225536.641,A,4323.3928,N,08024.2624,W,14.725129,78.24,180319,,*19
$GPGGA,225537.641,4323.3937,N,08024.2569,W,1,07,1.8,262.1,M,-34.9,M,5.3,0000*45
$GPGLL,4323.3937,N,08024.2569,W,225537.641,A*2F
$GPGSA,A,3,18,01,11,17,08,28,30,,,,,,2.7,1.8,2.0*33
$GPRMC,225537.641,A,4323.3937,N,08024.2569,W,14.439875,76.69,180319,,*15
$GPGGA,225538.641,4323.3948,N,08024.2515,W,1,08,1.6,262.7,M,-34.9,M,6.3,0000*4D
$GPGLL,4323.3948,N,08024.2515,W,225538.641,A*23
$GPGSA,A,3,18,01,11,19,17,08,28,30,,,,,2.2,1.6,1.5*36
$GPRMC,225538.641,A,4323.3948,N,08024.2515,W,14.202529,72.84,180319,,*14
$GPGGA,225539.641,4323.3962,N,08024.2463,W,1,08,1.6,263.3,M,-34.9,M,7.3,0000*40
$GPGLL,4323.3962,N,08024.2463,W,225539.641,A*2A
$GPGSA,A,3,18,01,11,19,17,08,28,30,,,,,2.2,1.6,1.5*36
$GPRMC,225539.641,A,4323.3962,N,08024.2463,W,14.124476,65.69,180319,,*14
$GPGGA,225540.641,4323.3981,N,08024.2414,W,1,07,1.6,263.9,M,-34.9,M,8.3,0000*49
$GPGLL,4323.3981,N,08024.2414,W,225540.641,A*29
$GPGSA,A,3,18,01,19,17,08,28,30,,,,,,2.3,1.6,1.5*37
$GPGSV,3,1,12,18,36,53,37,1,58,82,36,11,50,59,27,3,9,122,0*42
$GPGSV,3,2,12,19,22,250,32,22,16,101,0,17,48,260,40,8,11,65,32*42
$GPGSV,3,3,12,28,73,334,36,7,19,173,26,30,46,198,43,131,0,0,24*48
$GPRMC,225540.641,A,4323.3981,N,08024.2414,W,14.133311,58.68,180319,,*18
$GPGGA,225541.641,4323.4004,N,08024.2368,W,1,07,1.7,264.4,M,-34.9,M,9.3,0000*4D
$GPGLL,4323.4004,N,08024.2368,W,225541.641,A*27
$GPGSA,A,3,18,01,11,19,17,28,30,,,,,,2.9,1.7,2.3*31
$GPRMC,225541.641,A,4323.4004,N,08024.2368,W,14.118297,50.70,180319,,*11
$GPGGA,225542.641,4323.4031,N,08024.2328,W,1,07,1.8,265.1,M,-34.9,M,10.3,0000*7F
$GPGLL,4323.4031,N,08024.2328,W,225542.641,A*26
$GPGSA,A,3,18,01,11,17,08,28,30,,,,,,2.7,1.8,2.0*33
$GPRMC,225542.641,A,4323.4031,N,08024.2328,W,14.285898,43.67,180319,,*16
$GPGGA,225543.641,4323.4062,N,08024.2293,W,1,06,1.8,265.4,M,-34.9,M,11.3,0000*7C
$GPGLL,4323.4062,N,08024.2293,W,225543.641,A*20
$GPGSA,A,3,18,01,11,17,28,30,,,,,,,4.2,1.8,3.8*31
$GPRMC,225543.641,A,4323.4062,N,08024.2293,W,14.530314,37.87,180319,,*1B
$GPGGA,225544.641,4323.4095,N,08024.2260,W,1,07,1.6,265.6,M,-34.9,M,12.3,0000*71
$GPGLL,4323.4095,N,08024.2260,W,225544.641,A*23
$GPGSA,A,3,18,01,11,17,28,07,30,,,,,,3.3,1.6,2.9*3E
$GPRMC,225544.641,A,4323.4095,N,08024.2260,W,14.579733,32.81,180319,,*17
$GPGGA,225545.641,4323.4130,N,08024.2231,W,1,09,1.1,265.8,M,-34.9,M,13.3,0000*7C
$GPGLL,4323.4130,N,08024.2231,W,225545.641,A*28
$GPGSA,A,3,18,01,11,19,17,08,28,07,30,,,,1.9,1.1,1.5*3E
$GPGSV,3,1,12,18,36,52,42,1,58,81,44,11,50,59,44,3,9,122,0*42
$GPGSV,3,2,12,19,22,250,28,22,16,101,0,17,48,260,35,8,11,65,31*48
$GPGSV,3,3,12,28,73,335,36,7,19,173,39,30,46,198,38,131,0,0,0*7D
$GPRMC,225545.641,A,4323.4130,N,08024.2231,W,14.588305,30.65,180319,,*1B
$GPGGA,225546.641,4323.4166,N,08024.2205,W,1,09,1.1,265.9,M,-34.9,M,14.3,0000*7D
$GPGLL,4323.4166,N,08024.2205,W,225546.641,A*2F
$GPGSA,A,3,18,01,11,19,17,08,28,07,30,,,,1.9,1.1,1.5*3E
$GPRMC,225546.641,A,4323.4166,N,08024.2205,W,14.625836,22.61,180319,,*14
$GPGGA,225547.641,4323.4205,N,08024.2190,W,1,09,1.1,265.8,M,-34.9,M,15.3,0000*75
$GPGLL,4323.4205,N,08024.2190,W,225547.641,A*27
$GPGSA,A,3,18,01,11,19,17,08,28,07,30,,,,1.9,1.1,1.5*3E
$GPRMC,225547.641,A,4323.4205,N,08024.2190,W,14.303069,12.56,180319,,*18
$GPGGA,225548.641,4323.4244,N,08024.2184,W,1,09,1.2,265.7,M,-34.9,M,16.3,0000*75
$GPGLL,4323.4244,N,08024.2184,W,225548.641,A*28
$GPGSA,A,3,18,01,11,19,22,17,28,07,30,,,,2.2,1.2,1.8*30
$GPRMC,225548.641,A,4323.4244,N,08024.2184,W,14.064536,2.08,180319,,*20
$GPGGA,225549.640,4323.4283,N,08024.2188,W,1,07,1.7,265.5,M,-34.9,M,17.3,0000*7A
$GPGLL,4323.4283,N,08024.2188,W,225549.640,A*2F
$GPGSA,A,3,18,01,11,19,17,28,30,,,,,,2.9,1.7,2.3*31
$GPRMC,225549.640,A,4323.4283,N,08024.2188,W,13.461530,355.24,180319,,*28
$GPGGA,225550.640,4323.4319,N,08024.2196,W,1,08,1.3,265.4,M,-34.9,M,18.3,0000*7A
$GPGLL,4323.4319,N,08024.2196,W,225550.640,A*2A
$GPGSA,A,3,18,01,11,19,17,28,07,30,,,,,2.4,1.3,2.1*3D
$GPGSV,3,1,12,18,36,52,39,1,58,81,44,11,50,59,36,3,9,122,0*4B
$GPGSV,3,2,12,19,22,250,34,22,16,101,25,17,48,260,44,8,11,65,24*70
$GPGSV,3,3,12,28,73,335,32,7,19,173,30,30,46,198,34,131,0,0,0*7C
$GPRMC,225550.640,A,4323.4319,N,08024.2196,W,12.434171,351.53,180319,,*29
$GPGGA,225551.640,4323.4352,N,08024.2207,W,1,09,1.2,266.0,M,-34.9,M,18.3,0000*78
$GPGLL,4323.4352,N,08024.2207,W,225551.640,A*2F
$GPGSA,A,3,18,01,11,19,22,17,28,07,30,,,,2.2,1.2,1.8*30
$GPRMC,225551.640,A,4323.4352,N,08024.2207,W,11.187994,349.03,180319,,*2D
$GPGGA,225552.640,4323.4380,N,08024.2219,W,1,08,1.3,266.4,M,-34.9,M,18.3,0000*7F
$GPGLL,4323.4380,N,08024.2219,W,225552.640,A*2C
$GPGSA,A,3,18,01,11,19,17,28,07,30,,,,,2.4,1.3,2.1*3D
$GPRMC,225552.640,A,4323.4380,N,08024.2219,W,9.442711,348.49,180319,,*17
$GPGGA,225553.640,4323.4403,N,08024.2230,W,1,08,1.3,266.6,M,-34.9,M,18.3,0000*7B
$GPGLL,4323.4403,N,08024.2230,W,225553.640,A*2A
$GPGSA,A,3,18,01,11,19,17,28,07,30,,,,,2.4,1.3,2.1*3D
$GPRMC,225553.640,A,4323.4403,N,08024.2230,W,7.578431,348.56,180319,,*18
$GPGGA,225554.640,4323.4422,N,08024.2239,W,1,08,1.3,266.8,M,-34.9,M,18.3,0000*78
$GPGLL,4323.4422,N,08024.2239,W,225554.640,A*27
$GPGSA,A,3,18,01,11,19,17,28,07,30,,,,,2.4,1.3,2.1*3D
$GPRMC,225554.640,A,4323.4422,N,08024.2239,W,6.132184,348.36,180319,,*13
$GPGGA,225555.640,4323.4435,N,08024.2246,W,1,08,1.3,266.9,M,-34.9,M,18.3,0000*76
$GPGLL,4323.4435,N,08024.2246,W,225555.640,A*28
$GPGSA,A,3,18,01,11,19,17,28,07,30,,,,,2.4,1.3,2.1*3D
$GPGSV,3,1,12,18,36,52,40,1,58,81,43,11,50,59,38,3,9,122,0*4C
$GPGSV,3,2,12,19,22,250,31,22,16,101,22,17,48,260,43,8,11,65,24*75
$GPGSV,3,3,12,28,73,335,36,7,19,173,36,30,46,198,35,131,0,0,31*4D
$GPRMC,225555.640,A,4323.4435,N,08024.2246,W,4.024399,348.67,180319,,*12
$GPGGA,225556.640,4323.4443,N,08024.2252,W,1,07,1.6,266.8,M,-34.9,M,18.3,0000*7A
$GPGLL,4323.4443,N,08024.2252,W,225556.640,A*2F
$GPGSA,A,3,18,01,11,17,28,07,30,,,,,,3.3,1.6,2.9*3E
$GPRMC,225556.640,A,4323.4443,N,08024.2252,W,1.916273,350.65,180319,,*16
$GPGGA,225557.640,4323.4445,N,08024.2254,W,1,07,1.6,266.8,M,-34.9,M,18.3,0000*7B
$GPGLL,4323.4445,N,08024.2254,W,225557.640,A*2E
$GPGSA,A,3,18,01,11,17,28,07,30,,,,,,3.3,1.6,2.9*3E
$GPRMC,225557.640,A,4323.4445,N,08024.2254,W,0.168113,23.82,180319,,*2C
$GPGGA,225558.640,4323.4444,N,08024.2256,W,1,07,1.6,266.8,M,-34.9,M,18.3,0000*77
$GPGLL,4323.4444,N,08024.2256,W,225558.640,A*22
$GPGSA,A,3,18,01,11,17,28,07,30,,,,,,3.3,1.6,2.9*3E
$GPRMC,225558.640,A,4323.4444,N,08024.2256,W,0.145663,119.99,180319,,*1D
$GPGGA,225559.640,4323.4442,N,08024.2257,W,1,08,1.3,266.7,M,-34.9,M,18.3,0000*74
$GPGLL,4323.4442,N,08024.2257,W,225559.640,A*24
$GPGSA,A,3,18,01,11,19,17,28,07,30,,,,,2.4,1.3,2.1*3D
$GPRMC,225559.640,A,4323.4442,N,08024.2257,W,0.138519,115.51,180319,,*17
$GPGGA,225600.640,4323.4440,N,08024.2258,W,1,08,1.3,266.5,M,-34.9,M,18.3,0000*74
$GPGLL,4323.4440,N,08024.2258,W,225600.640,A*26
$GPGSA,A,3,18,01,11,19,17,28,07,30,,,,,2.4,1.3,2.1*3D
$GPGSV,3,1,12,18,36,52,40,1,58,81,43,11,50,59,40,3,9,122,0*43
$GPGSV,3,2,12,19,22,250,29,22,16,101,23,17,48,260,44,8,11,65,25*7B
$GPGSV,3,3,12,28,73,335,37,7,19,173,36,30,46,198,36,131,0,0,28*47
$GPRMC,225600.640,A,4323.4440,N,08024.2258,W,0.130783,116.01,180319,,*1A
$GPGGA,225601.640,4323.4438,N,08024.2260,W,1,08,1.3,266.3,M,-34.9,M,18.3,0000*77
$GPGLL,4323.4438,N,08024.2260,W,225601.640,A*23
$GPGSA,A,3,18,01,11,19,17,28,07,30,,,,,2.4,1.3,2.1*3D
$GPRMC,225601.640,A,4323.4438,N,08024.2260,W,0.113961,106.21,180319,,*1F
$GPGGA,225602.640,4323.4436,N,08024.2261,W,1,08,1.3,266.2,M,-34.9,M,1.3,0000*42
$GPGLL,4323.4436,N,08024.2261,W,225602.640,A*2F
$GPGSA,A,3,18,01,11,19,17,28,07,30,,,,,2.4,1.3,2.1*3D
$GPRMC,225602.640,A,4323.4436,N,08024.2261,W,0.131304,109.67,180319,,*17
$GPGGA,225603.640,4323.4435,N,08024.2264,W,1,09,1.1,266.4,M,-34.9,M,1.3,0000*40
$GPGLL,4323.4435,N,08024.2264,W,225603.640,A*28
$GPGSA,A,3,18,01,11,19,17,08,28,07,30,,,,1.9,1.1,1.5*3E
$GPRMC,225603.640,A,4323.4435,N,08024.2264,W,0.114452,108.17,180319,,*15
$GPGGA,225604.640,4323.4433,N,08024.2268,W,1,09,1.1,266.9,M,-34.9,M,0.0,0000*42
$GPGLL,4323.4433,N,08024.2268,W,225604.640,A*25
$GPGSA,A,3,18,01,11,19,17,08,28,07,30,,,,1.9,1.1,1.5*3E
$GPRMC,225604.640,A,4323.4433,N,08024.2268,W,0.146265,120.19,180319,,*19
$GPGGA,225605.640,4323.4432,N,08024.2272,W,1,09,1.1,267.5,M,-34.9,M,2.3,0000*45
$GPGLL,4323.4432,N,08024.2272,W,225605.640,A*2E
$GPGSA,A,3,18,01,11,19,17,08,28,07,30,,,,1.9,1.1,1.5*3E
$GPGSV,3,1,12,18,36,52,40,1,58,81,43,11,50,59,41,3,9,122,0*42
$GPGSV,3,2,12,19,22,250,30,22,16,101,0,17,48,260,43,8,11,65,28*48
$GPGSV,3,3,12,28,73,335,37,7,19,173,35,30,46,198,36,131,0,0,28*44
$GPRMC,225605.640,A,4323.4432,N,08024.2272,W,0.113082,117.71,180319,,*13
$GPGGA,225606.639,4323.4430,N,08024.2276,W,1,09,1.1,268.0,M,-34.9,M,3.3,0000*45
$GPGLL,4323.4430,N,08024.2276,W,225606.639,A*25
$GPGSA,A,3,18,01,11,19,17,08,28,07,30,,,,1.9,1.1,1.5*3E
$GPRMC,225606.639,A,4323.4430,N,08024.2276,W,0.122802,113.37,180319,,*1C
$GPGGA,225607.639,4323.4424,N,08024.2292,W,2,04,2.3,272.5,M,-34.9,M,1.3,0000*48
$GPGLL,4323.4424,N,08024.2292,W,225607.639,A*2B
$GPGSA,A,3,01,17,08,30,,,,,,,,,3.4,2.3,2.6*3C
$GPRMC,225607.639,A,4323.4424,N,08024.2292,W,0.180047,143.68,180319,,*1C
$GPGGA,225608.639,4323.4422,N,08024.2296,W,2,04,2.3,275.2,M,-34.9,M,1.3,0000*45
$GPGLL,4323.4422,N,08024.2296,W,225608.639,A*26
$GPGSA,A,3,01,17,08,30,,,,,,,,,3.4,2.3,2.6*3C
$GPRMC,225608.639,A,4323.4422,N,08024.2296,W,0.161119,136.02,180319,,*1A
$GPGGA,225609.639,4323.4421,N,08024.2300,W,2,04,2.3,276.9,M,-34.9,M,1.3,0000*41
$GPGLL,4323.4421,N,08024.2300,W,225609.639,A*2A
$GPGSA,A,3,01,17,08,30,,,,,,,,,3.4,2.3,2.6*3C
$GPRMC,225609.639,A,4323.4421,N,08024.2300,W,0.107919,133.02,180319,,*1B
$GPGGA,225610.639,4323.4420,N,08024.2302,W,2,04,2.3,278.7,M,-34.9,M,1.3,0000*4A
$GPGLL,4323.4420,N,08024.2302,W,225610.639,A*21
$GPGSA,A,3,01,17,08,30,,,,,,,,,3.4,2.3,2.6*3C
$GPGSV,3,1,12,18,36,52,41,1,58,81,45,11,50,59,40,3,9,122,0*44
$GPGSV,3,2,12,19,22,250,31,22,16,101,0,17,48,260,42,8,11,65,28*48
$GPGSV,3,3,12,28,73,335,36,7,19,173,36,30,46,198,36,131,0,0,28*46
$GPRMC,225610.639,A,4323.4420,N,08024.2302,W,0.084323,126.38,180319,,*14
$GPGGA,225611.639,4323.4418,N,08024.2303,W,2,05,1.6,279.4,M,-34.9,M,1.3,0000*44
$GPGLL,4323.4418,N,08024.2303,W,225611.639,A*2A
$GPGSA,A,3,01,17,08,07,30,,,,,,,,2.7,1.6,2.1*38
$GPRMC,225611.639,A,4323.4418,N,08024.2303,W,0.110212,135.61,180319,,*1E
$GPGGA,225612.639,4323.4419,N,08024.2301,W,1,08,1.3,277.5,M,-34.9,M,1.3,0000*40
$GPGLL,4323.4419,N,08024.2301,W,225612.639,A*2A
$GPGSA,A,3,18,01,11,19,17,28,07,30,,,,,2.4,1.3,2.1*3D
$GPRMC,225612.639,A,4323.4419,N,08024.2301,W,0.079702,79.79,180319,,*24
$GPGGA,225613.639,4323.4417,N,08024.2301,W,2,06,1.6,278.0,M,-34.9,M,1.3,0000*4D
$GPGLL,4323.4417,N,08024.2301,W,225613.639,A*25
$GPGSA,A,3,01,17,08,28,07,30,,,,,,,2.5,1.6,2.0*31
$GPRMC,225613.639,A,4323.4417,N,08024.2301,W,0.064723,134.84,180319,,*1E
$GPGGA,225614.639,4323.4414,N,08024.2303,W,2,06,1.6,279.0,M,-34.9,M,1.3,0000*4A
$GPGLL,4323.4414,N,08024.2303,W,225614.639,A*23
$GPGSA,A,3,01,17,08,28,07,30,,,,,,,2.5,1.6,2.0*31
$GPRMC,225614.639,A,4323.4414,N,08024.2303,W,0.081295,165.74,180319,,*10
$GPGGA,225615.639,4323.4412,N,08024.2304,W,2,06,1.6,280.3,M,-34.9,M,1.3,0000*4F
$GPGLL,4323.4412,N,08024.2304,W,225615.639,A*23
$GPGSA,A,3,01,17,08,28,07,30,,,,,,,2.5,1.6,2.0*31
